city,region,country,lat,lon,continent
eskasem,badakhshan,afghanistan,36.709,71.574,asia
faizabad,badakhshan,afghanistan,37.1175,70.5797,asia
shehr qaleh,badghis,afghanistan,34.9867,63.1292,asia
baglan,baghlan,afghanistan,36.127,68.705,asia
bala kuh,balkh,afghanistan,36.5758,66.8203,asia
balkh,balkh,afghanistan,36.759,66.896,asia
kholm,balkh,afghanistan,36.695,67.698,asia
mazar-e sharif,balkh,afghanistan,36.7069,67.1122,asia
nili,bamian,afghanistan,33.7261,66.1308,asia
panjab,bamian,afghanistan,34.388,67.023,asia
sekhreza,bamian,afghanistan,34.8292,67.8347,asia
yakaulang,bamian,afghanistan,34.7347,66.9678,asia
chawnay,daykondi,afghanistan,33.3833,66.2736,asia
farah,farah,afghanistan,32.374,62.116,asia
tojg,farah,afghanistan,32.0686,61.8058,asia
andkhoi,faryab,afghanistan,36.9525,65.1236,asia
maymana,faryab,afghanistan,35.921,64.784,asia
gazni,ghazni,afghanistan,33.551,68.423,asia
almasha,ghowr,afghanistan,33.5136,64.43,asia
chekcheran,ghowr,afghanistan,34.5225,65.2517,asia
bost,helmand,afghanistan,31.5892,64.3633,asia
deh shu,helmand,afghanistan,30.4344,63.3183,asia
hokumati baghran,helmand,afghanistan,33.0753,65.0864,asia
sangin,helmand,afghanistan,32.073,64.834,asia
ghorian,herat,afghanistan,34.3456,61.495,asia
herat,herat,afghanistan,34.347,62.198,asia
kafir qala,herat,afghanistan,34.667,61.067,asia
karukh,herat,afghanistan,34.479,62.587,asia
kuhestan,herat,afghanistan,34.654,61.198,asia
kushk,herat,afghanistan,33.296,61.953,asia
aqca,jowzjan,afghanistan,36.9114,66.1858,asia
qarqin,jowzjan,afghanistan,37.404,66.053,asia
shibarghan,jowzjan,afghanistan,36.667,65.754,asia
bagrami,kabol,afghanistan,34.494,69.275,asia
gowdarah,kabol,afghanistan,34.8197,69.0886,asia
kabul,kabol,afghanistan,34.517,69.183,asia
pagman,kabol,afghanistan,34.588,68.953,asia
qandahar,kandahar,afghanistan,31.613,65.709,asia
khowst,khowst,afghanistan,33.338,69.92,asia
asadabad,konar,afghanistan,34.873,71.146,asia
carikar,kondoz,afghanistan,35.014,69.171,asia
chichka,kondoz,afghanistan,37.0656,69.2933,asia
chugheh-ye sofla,kondoz,afghanistan,36.6825,69.1694,asia
kalayi-zal',kondoz,afghanistan,37.015,68.4672,asia
qunduz,kondoz,afghanistan,36.728,68.865,asia
mehtar lam,laghman,afghanistan,34.671,70.209,asia
baraki barak,lowgar,afghanistan,33.968,68.949,asia
acin,nangarhar,afghanistan,34.082,70.668,asia
bazarak,nangarhar,afghanistan,35.3133,69.5142,asia
jalalabad,nangarhar,afghanistan,34.426,70.451,asia
sherzad,nangarhar,afghanistan,34.2519,70.0069,asia
zaranj,nimruz,afghanistan,30.967,61.883,asia
poruns,nurestan,afghanistan,35.4208,70.9219,asia
tarinkot,oruzgan,afghanistan,32.6286,65.8775,asia
gardez,paktia,afghanistan,33.599,69.225,asia
katawaz,paktika,afghanistan,32.8472,68.4458,asia
orgun,paktika,afghanistan,32.901,69.153,asia
sharan,paktika,afghanistan,33.147,68.792,asia
aybak,samangan,afghanistan,36.265,68.017,asia
asya-ye bad,sar-e pol,afghanistan,36.2003,65.9389,asia
taloqan,takhar,afghanistan,36.734,69.54,asia
maydanshakhr,vardak,afghanistan,34.392,68.864,asia
kalat-i-ghilzai,zabol,afghanistan,32.1067,66.9106,asia
berat,berat,albania,40.706,19.952,europe
corovode,berat,albania,40.504,20.227,europe
kucove,berat,albania,40.8,19.917,europe
burrel,diber,albania,41.61,20.009,europe
peshkopi,diber,albania,41.685,20.429,europe
durres,durres,albania,41.323,19.441,europe
fushe-kruje,durres,albania,41.478,19.718,europe
kruje,durres,albania,41.509,19.793,europe
shijak,durres,albania,41.346,19.567,europe
cerrik,elbasan,albania,41.032,19.976,europe
elbasan,elbasan,albania,41.113,20.082,europe
gramsh,elbasan,albania,40.87,20.184,europe
librazhd,elbasan,albania,41.179,20.315,europe
fier,fier,albania,40.724,19.556,europe
lushnje,fier,albania,40.942,19.705,europe
patos,fier,albania,40.683,19.619,europe
gjirokaster,gjirokaster,albania,40.076,20.139,europe
permet,gjirokaster,albania,40.234,20.352,europe
tepelene,gjirokaster,albania,40.296,20.019,europe
erseke,korce,albania,40.338,20.679,europe
korce,korce,albania,40.619,20.781,europe
maliq,korce,albania,40.706,20.7,europe
pogradec,korce,albania,40.903,20.653,europe
bajram curri,kukes,albania,42.357,20.073,europe
kukes,kukes,albania,42.077,20.422,europe
lac,lezhe,albania,41.636,19.713,europe
lezhe,lezhe,albania,41.784,19.644,europe
rreshen,lezhe,albania,41.768,19.876,europe
puke,shkoder,albania,42.044,19.9,europe
shkoder,shkoder,albania,42.068,19.513,europe
kamze,tirane,albania,41.382,19.76,europe
kavaje,tirane,albania,41.186,19.557,europe
tirana,tirane,albania,41.328,19.819,europe
sarande,vlore,albania,39.876,20.005,europe
vlore,vlore,albania,40.467,19.49,europe
adrar,adrar,algeria,27.9,-0.283,africa
bordj mokhtar,adrar,algeria,21.3431,0.9264,africa
'ain defla,ain defla,algeria,36.2681,1.9675,africa
affreville,ain defla,algeria,36.2622,2.2181,africa
cherche,ain defla,algeria,36.605,2.1908,africa
djemdel,ain defla,algeria,36.2186,2.4108,africa
lamartine,ain defla,algeria,36.1128,1.5506,africa
lavarande,ain defla,algeria,36.2639,2.1608,africa
les attafs,ain defla,algeria,36.2247,1.6728,africa
sidi bou messabeh,ain defla,algeria,36.3167,2.2167,africa
teniet el haad,ain defla,algeria,35.8711,2.0281,africa
voltaire,ain defla,algeria,36.1569,2.4042,africa
3 marabouts,ain temouchent,algeria,35.305,-1.18,africa
aine temouchent,ain temouchent,algeria,35.295,-1.1375,africa
aine tholba,ain temouchent,algeria,35.2483,-1.2489,africa
chabet el leham,ain temouchent,algeria,35.34,-1.0981,africa
douar ahl bradai,ain temouchent,algeria,35.3667,-0.8167,africa
hammam bou hadjar,ain temouchent,algeria,35.3789,-0.9678,africa
rio salado,ain temouchent,algeria,35.3919,-1.0953,africa
tamzoura,ain temouchent,algeria,35.4106,-0.6561,africa
targa,ain temouchent,algeria,35.4183,-1.1756,africa
algiers,alger,algeria,36.763,3.051,africa
bab ezzouar,alger,algeria,36.717,3.183,africa
birkhadem,alger,algeria,36.713,3.062,africa
bordj el kiffan,alger,algeria,36.748,3.193,africa
rouiba,alger,algeria,36.739,3.285,africa
'ain el assel,annaba,algeria,36.7869,8.385,africa
'ain kerma,annaba,algeria,36.5833,8.2,africa
bekkaria,annaba,algeria,35.3753,8.2436,africa
belkheir,annaba,algeria,36.4658,7.4781,africa
berrahal,annaba,algeria,36.835,7.453,africa
bir el ater,annaba,algeria,34.7333,8.05,africa
bou hadjar,annaba,algeria,36.5,8.1,africa
bou khadra,annaba,algeria,35.7503,8.04,africa
cheria,annaba,algeria,35.2731,7.7519,africa
drean,annaba,algeria,36.684,7.746,africa
el hadjar,annaba,algeria,36.805,7.738,africa
el kouif,annaba,algeria,35.4961,8.3239,africa
gallieni,annaba,algeria,36.5908,7.3269,africa
guelma,annaba,algeria,36.4661,7.4339,africa
hammam m'bails,annaba,algeria,36.3236,7.6428,africa
lac des oiseaux,annaba,algeria,36.7775,8.1178,africa
le tarf,annaba,algeria,36.7686,8.3167,africa
merdess,annaba,algeria,36.6744,7.9764,africa
morsott,annaba,algeria,35.6678,8.0117,africa
nechmeya,annaba,algeria,36.6111,7.5125,africa
negrine,annaba,algeria,34.4833,7.5167,africa
oued cheham,annaba,algeria,36.3797,7.7628,africa
ouenza,annaba,algeria,35.9533,8.1292,africa
petit,annaba,algeria,36.4583,7.5139,africa
souk ahras,annaba,algeria,36.2864,7.9511,africa
ain touta,batna,algeria,35.3767,5.8961,africa
arris,batna,algeria,35.258,6.351,africa
barika,batna,algeria,35.39,5.377,africa
batna,batna,algeria,35.555,6.179,africa
berhoum,batna,algeria,35.6597,5.0356,africa
bouzina,batna,algeria,35.2797,6.1136,africa
el bania,batna,algeria,33.9333,4.9667,africa
fourhala,batna,algeria,34.7167,5.3167,africa
lioua,batna,algeria,34.6333,5.4167,africa
m'chouneche,batna,algeria,34.95,6.0,africa
m'raier,batna,algeria,33.95,5.9333,africa
magra,batna,algeria,35.5942,5.0706,africa
menaa,batna,algeria,35.1744,6.0069,africa
merouana,batna,algeria,35.629,5.912,africa
n'gaous,batna,algeria,35.555,5.6106,africa
ouled djellal,batna,algeria,34.4167,5.0667,africa
sidi khaled,batna,algeria,34.3833,5.0,africa
tazoult-lambese,batna,algeria,35.486,6.255,africa
abadla,bechar,algeria,31.0167,-2.7333,africa
bechar,bechar,algeria,31.6167,-2.2167,africa
beni ounif,bechar,algeria,32.0489,-1.2514,africa
kenadsa,bechar,algeria,31.5486,-2.4269,africa
marhouma,bechar,algeria,30.0167,-2.0833,africa
adekar kebouche,bejaia,algeria,36.6917,4.675,africa
akabli,bejaia,algeria,26.7,1.3667,africa
akourma,bejaia,algeria,36.4667,4.6333,africa
azerou ait chemini,bejaia,algeria,36.6,4.6167,africa
bou mellal,bejaia,algeria,36.6,4.6333,africa
camp inferieur,bejaia,algeria,36.75,5.0667,africa
el kseur,bejaia,algeria,36.6833,4.85,africa
irhil igrane,bejaia,algeria,36.6333,5.1167,africa
kerrata,bejaia,algeria,36.495,5.2808,africa
oulad amor,bejaia,algeria,36.45,5.1,africa
ouled aissa,bejaia,algeria,29.4167,-0.0833,africa
souk et tleta,bejaia,algeria,36.5667,4.9667,africa
tazmalt,bejaia,algeria,36.387,4.402,africa
tichi,bejaia,algeria,36.6667,5.1667,africa
tizi n' bechar,bejaia,algeria,36.4333,5.35,africa
tizi tifra,bejaia,algeria,36.6667,4.7,africa
toudja,bejaia,algeria,36.75,4.9,africa
biskra,biskra,algeria,34.85,5.733,africa
bouchegroun,biskra,algeria,34.7,5.4667,africa
djemmorah,biskra,algeria,35.0681,5.8375,africa
el outaia,biskra,algeria,35.0331,5.5978,africa
lichana,biskra,algeria,34.7167,5.4333,africa
sidi okba,biskra,algeria,34.75,5.9,africa
beni mered,blida,algeria,36.523,2.863,africa
blida,blida,algeria,36.469,2.829,africa
boufarik,blida,algeria,36.571,2.911,africa
bougara,blida,algeria,36.541,3.085,africa
chebli,blida,algeria,36.577,3.009,africa
chiffa,blida,algeria,36.462,2.742,africa
meftah,blida,algeria,36.619,3.225,africa
sidi moussa,blida,algeria,36.604,3.09,africa
souma,blida,algeria,36.518,2.905,africa
ain tassera,bordj bou arreridj,algeria,36.0333,4.9667,africa
bel imour,bordj bou arreridj,algeria,35.9811,4.8789,africa
bir kasdali,bordj bou arreridj,algeria,36.15,5.0333,africa
bordj bou arreridj,bordj bou arreridj,algeria,36.075,4.775,africa
bordj ghdir,bordj bou arreridj,algeria,35.9011,4.8981,africa
bordj zemoura,bordj bou arreridj,algeria,36.2694,4.8472,africa
boukton,bordj bou arreridj,algeria,36.2181,4.4867,africa
el ach,bordj bou arreridj,algeria,35.95,4.6833,africa
el achir,bordj bou arreridj,algeria,36.0667,4.6306,africa
krelil,bordj bou arreridj,algeria,36.1833,5.0167,africa
lecourbe,bordj bou arreridj,algeria,35.9758,4.7478,africa
mansourah,bordj bou arreridj,algeria,36.0775,4.4633,africa
mechta oulad ahmed,bordj bou arreridj,algeria,35.9833,4.1833,africa
medjana,bordj bou arreridj,algeria,36.1306,4.6672,africa
rabta,bordj bou arreridj,algeria,35.9167,4.75,africa
ras el oued,bordj bou arreridj,algeria,35.9461,5.0328,africa
sidi embareck,bordj bou arreridj,algeria,36.1014,4.9083,africa
tarmount,bordj bou arreridj,algeria,35.8208,4.2875,africa
tixter,bordj bou arreridj,algeria,36.05,5.0833,africa
'ain el hadjar,bouira,algeria,36.3389,3.8061,africa
bechloul,bouira,algeria,36.3167,4.0667,africa
bordj d'oued okris,bouira,algeria,36.0792,3.9744,africa
chorfa,bouira,algeria,36.369,4.337,africa
el esnam,bouira,algeria,36.3222,4.0103,africa
guerouma,bouira,algeria,36.4833,3.4333,africa
ouled rached,bouira,algeria,36.2139,4.1083,africa
sour el ghozlane,bouira,algeria,36.15,3.689,africa
beni amrane,boumerdes,algeria,36.667,3.583,africa
boudouaou,boumerdes,algeria,36.731,3.41,africa
boumerdas,boumerdes,algeria,36.767,3.477,africa
dellys,boumerdes,algeria,36.919,3.888,africa
isser,boumerdes,algeria,36.717,3.667,africa
thenia,boumerdes,algeria,36.728,3.554,africa
charouine,chlef,algeria,29.0167,-0.2667,africa
chlef,chlef,algeria,36.165,1.335,africa
d'hamnia,chlef,algeria,36.2764,1.5144,africa
ech chettia,chlef,algeria,36.196,1.258,africa
el maiz,chlef,algeria,28.35,-0.2167,africa
francis,chlef,algeria,36.5292,1.5675,africa
oued sly,chlef,algeria,36.101,1.202,africa
sidi akkacha,chlef,algeria,36.465,1.307,africa
ain el melouk,constantine,algeria,36.2733,6.1753,africa
aine abid,constantine,algeria,36.2319,6.9433,africa
azzaba,constantine,algeria,36.7394,7.1053,africa
benyahia abderrahmane,constantine,algeria,36.2333,6.0167,africa
chahana,constantine,algeria,36.6833,5.9667,africa
chateaudun de rhumel,constantine,algeria,36.1594,6.165,africa
constantine,constantine,algeria,36.365,6.615,africa
didouche mourad,constantine,algeria,36.453,6.636,africa
djema abd el aziz,constantine,algeria,36.85,6.05,africa
el ancer,constantine,algeria,36.8017,6.1608,africa
el arrouch,constantine,algeria,36.6531,6.8364,africa
el khroub,constantine,algeria,36.263,6.694,africa
el koubbiya,constantine,algeria,36.8667,6.9,africa
es sebt,constantine,algeria,36.6614,7.0753,africa
hamma bouziane,constantine,algeria,36.413,6.598,africa
ksar sbehi,constantine,algeria,36.0831,7.2581,africa
mechta dekhakhene,constantine,algeria,35.4789,7.5383,africa
oued athmenia,constantine,algeria,36.2494,6.2886,africa
oued zenati,constantine,algeria,36.3186,7.1672,africa
ouled seguin,constantine,algeria,36.1831,6.3872,africa
rouached,constantine,algeria,36.4547,6.0417,africa
saint-donat,constantine,algeria,36.1167,5.9833,africa
telergma,constantine,algeria,36.1153,6.3642,africa
ain feka,djelfa,algeria,35.4269,3.5772,africa
bouira sahari,djelfa,algeria,35.3506,3.3653,africa
charef,djelfa,algeria,34.621,2.8,africa
dar chioukh,djelfa,algeria,34.9,3.483,africa
djelfa,djelfa,algeria,34.667,3.25,africa
el idrissia,djelfa,algeria,34.449,2.532,africa
el oussera,djelfa,algeria,35.4514,2.9058,africa
hassi bahbah,djelfa,algeria,35.0664,3.0333,africa
messaad,djelfa,algeria,34.167,3.5,africa
moudjbara,djelfa,algeria,34.5167,3.4667,africa
bou-guetoub,el bayadh,algeria,34.0333,0.0833,africa
el abiodh sidi cheikh,el bayadh,algeria,32.883,0.567,africa
el bayadh,el bayadh,algeria,33.686,1.014,africa
mecheria,el bayadh,algeria,33.55,-0.2833,africa
naama,el bayadh,algeria,33.2667,-0.3167,africa
debila,el oued,algeria,33.517,6.95,africa
el oued,el oued,algeria,33.333,6.883,africa
mouiat ouennsa,el oued,algeria,33.2,6.7167,africa
reguiba,el oued,algeria,33.567,6.717,africa
robbah,el oued,algeria,33.267,6.917,africa
i-n-guezzam,ghardaia,algeria,19.5603,5.7725,africa
fort charlet,illizi,algeria,24.5525,9.4822,africa
i-n-amenas,illizi,algeria,28.05,9.55,africa
illizi,illizi,algeria,26.483,8.467,africa
catinat,jijel,algeria,36.7164,6.3394,africa
el milia,jijel,algeria,36.7547,6.2725,africa
jijel,jijel,algeria,36.8,5.767,africa
ziama mansouriah,jijel,algeria,36.6744,5.4825,africa
babar,khenchela,algeria,35.1631,7.1047,africa
bouhmama,khenchela,algeria,35.2869,6.7328,africa
edgar-ouinet,khenchela,algeria,35.4931,6.9306,africa
khenchela,khenchela,algeria,35.436,7.143,africa
tamza,khenchela,algeria,35.3094,6.8303,africa
'ain el bell,laghouat,algeria,34.35,3.2167,africa
aflou,laghouat,algeria,34.109,2.102,africa
auberge,laghouat,algeria,34.1333,3.0167,africa
bordj de gueltet sidi saad,laghouat,algeria,34.2972,1.9408,africa
ksar el hirane,laghouat,algeria,33.7833,3.15,africa
laghouat,laghouat,algeria,33.8,2.883,africa
tadjemout,laghouat,algeria,33.8667,2.5167,africa
'ain el melh,m'sila,algeria,34.85,4.1667,africa
el hamel,m'sila,algeria,35.1308,4.0858,africa
feidh el botma,m'sila,algeria,34.5,3.7667,africa
hammam,m'sila,algeria,35.9292,4.3792,africa
m'sila,m'sila,algeria,35.7058,4.5419,africa
mechta aouich,m'sila,algeria,35.6728,4.8656,africa
mechtet dialem,m'sila,algeria,35.6956,4.7731,africa
medjedel,m'sila,algeria,35.1511,3.685,africa
selamate,m'sila,algeria,35.6758,3.8822,africa
bou hanifia el hamamat,mascara,algeria,35.316,-0.047,africa
cacherou,mascara,algeria,35.33,0.3419,africa
el ghomri,mascara,algeria,35.6869,0.2086,africa
mascara,mascara,algeria,35.394,0.14,africa
mohammadia,mascara,algeria,35.5886,0.0686,africa
oued el abtal,mascara,algeria,35.455,0.686,africa
oued taria,mascara,algeria,35.1142,0.0889,africa
sidi abd el moumene,mascara,algeria,35.6544,0.0147,africa
sig,mascara,algeria,35.528,-0.195,africa
'ain boucif,medea,algeria,35.8919,3.1606,africa
beni slimane,medea,algeria,36.2347,3.3039,africa
berrouaghia,medea,algeria,36.1367,2.9131,africa
birin,medea,algeria,35.635,3.225,africa
borhari,medea,algeria,35.8856,2.7508,africa
boughzoul,medea,algeria,35.6969,2.8469,africa
bouskene,medea,algeria,36.1833,3.2333,africa
chabounia,medea,algeria,35.5447,2.6033,africa
challaba,medea,algeria,35.9403,3.42,africa
el arba,medea,algeria,35.55,2.3667,africa
el omaria,medea,algeria,36.2644,3.0342,africa
el ouerf,medea,algeria,35.4333,2.5,africa
ksar el hadj,medea,algeria,28.7,0.3333,africa
masqnerey,medea,algeria,36.1386,3.425,africa
mechtat ameur ben amier,medea,algeria,36.2242,3.4669,africa
medea,medea,algeria,36.268,2.75,africa
oulad brahim,medea,algeria,36.3667,3.7167,africa
oulad dahmane,medea,algeria,36.3639,3.4639,africa
ouled rabah,medea,algeria,36.2833,3.1333,africa
souagui,medea,algeria,36.1119,3.2369,africa
tablat,medea,algeria,36.4119,3.3128,africa
zoubiria,medea,algeria,36.0703,2.9036,africa
mila,mila,algeria,36.45,6.264,africa
bou guirat,mostaganem,algeria,35.7517,0.2494,africa
douar bouaichia,mostaganem,algeria,35.8606,0.3325,africa
fornaka,mostaganem,algeria,35.7417,-0.0222,africa
mostaganem,mostaganem,algeria,35.933,0.09,africa
picard,mostaganem,algeria,36.2544,0.5753,africa
sidi ali,mostaganem,algeria,36.101,0.42,africa
aine sefra,naama,algeria,32.75,-0.5833,africa
arzeu,oran,algeria,35.8517,-0.3214,africa
bir el djir,oran,algeria,35.72,-0.545,africa
bou tlelis,oran,algeria,35.57,-0.901,africa
damesme,oran,algeria,35.8131,-0.2806,africa
es senia,oran,algeria,35.651,-0.634,africa
mers el hadjad,oran,algeria,35.7953,-0.1653,africa
mers el kebir,oran,algeria,35.729,-0.706,africa
oran,oran,algeria,35.691,-0.642,africa
sainte leu,oran,algeria,35.8025,-0.2611,africa
sidi ech chahmi,oran,algeria,35.658,-0.52,africa
tourville,oran,algeria,35.8464,-0.3069,africa
ben nasseur,ouargla,algeria,33.1167,6.4333,africa
berrian,ouargla,algeria,32.8333,3.7667,africa
bordj zelfana,ouargla,algeria,32.4,4.2333,africa
bou noura,ouargla,algeria,32.4833,3.7167,africa
djamaa,ouargla,algeria,33.533,6.0,africa
el ateuf,ouargla,algeria,32.4667,3.75,africa
el hadjira,ouargla,algeria,32.616,5.508,africa
ghardaia,ouargla,algeria,32.4833,3.6667,africa
hassi messaoud,ouargla,algeria,31.702,6.054,africa
megarine,ouargla,algeria,33.2,6.1,africa
metlili,ouargla,algeria,32.2667,3.6333,africa
n'goussa,ouargla,algeria,32.1383,5.3086,africa
ouargla,ouargla,algeria,31.958,5.328,africa
oum ez zebed,ouargla,algeria,33.1333,6.35,africa
rouissat,ouargla,algeria,31.927,5.35,africa
sidi amrane,ouargla,algeria,33.5,6.017,africa
taibet,ouargla,algeria,33.0833,6.4,africa
tebesbest,ouargla,algeria,33.117,6.083,africa
touggourt,ouargla,algeria,33.1,6.067,africa
zaouiet kounta,ouargla,algeria,27.2167,-0.2,africa
zaouiet reggane,ouargla,algeria,26.7,0.1667,africa
ain beida,oum el bouaghi,algeria,35.7964,7.3928,africa
ain fakroun,oum el bouaghi,algeria,35.9764,6.8756,africa
ain m'lila,oum el bouaghi,algeria,36.0369,6.5758,africa
aine kercha,oum el bouaghi,algeria,35.9247,6.6953,africa
berriche,oum el bouaghi,algeria,35.9144,7.3767,africa
meskiana,oum el bouaghi,algeria,35.633,7.669,africa
oum el bouaghi,oum el bouaghi,algeria,35.878,7.114,africa
ammi moussa,relizane,algeria,35.868,1.108,africa
djidiouia,relizane,algeria,35.931,0.823,africa
douar oulad ben aissa,relizane,algeria,35.5836,0.9075,africa
mazouna,relizane,algeria,36.118,0.899,africa
oued rhiou,relizane,algeria,35.963,0.914,africa
relizane,relizane,algeria,35.743,0.559,africa
saida,saida,algeria,34.8333,0.15,africa
'ain arnat,setif,algeria,36.1836,5.3106,africa
'ain azel,setif,algeria,35.8217,5.5147,africa
ain oulmene,setif,algeria,35.9231,5.2933,africa
ain tagrout,setif,algeria,36.1333,5.0833,africa
aine abessa,setif,algeria,36.2994,5.2928,africa
aine roua,setif,algeria,36.3333,5.1833,africa
amoucha,setif,algeria,36.3833,5.4167,africa
arbaoun,setif,algeria,36.4628,5.6481,africa
belaa,setif,algeria,36.2,5.85,africa
beni fouda,setif,algeria,36.2861,5.6072,africa
bougaa,setif,algeria,36.3333,5.0833,africa
el eulma,setif,algeria,36.15,5.6833,africa
setif,setif,algeria,36.1914,5.4094,africa
bedeau,sidi bel abbes,algeria,34.5,-0.8167,africa
mercier-lacombe,sidi bel abbes,algeria,35.2344,-0.2408,africa
prudhon,sidi bel abbes,algeria,35.2572,-0.5656,africa
sidi bel abbes,sidi bel abbes,algeria,35.1939,-0.6414,africa
sidi lhassene,sidi bel abbes,algeria,35.1703,-0.6964,africa
telarh,sidi bel abbes,algeria,34.7878,-0.5706,africa
ain kechera,skikda,algeria,36.7486,6.4353,africa
kerkera,skikda,algeria,36.929,6.586,africa
tamalous,skikda,algeria,36.836,6.641,africa
abalessa,tamanghasset,algeria,22.8883,4.8422,africa
arrem-i-n-amgel,tamanghasset,algeria,23.6936,5.1647,africa
tamanrasset,tamanghasset,algeria,22.785,5.523,africa
theveste,tebessa,algeria,35.4042,8.1242,africa
el golea,tiaret,algeria,30.5667,2.8833,africa
frenda,tiaret,algeria,35.062,1.042,africa
ksar chellala,tiaret,algeria,35.212,2.319,africa
mecheraa asfa,tiaret,algeria,35.3831,1.0503,africa
medrissa,tiaret,algeria,34.9,1.25,africa
mehdia,tiaret,algeria,35.431,1.756,africa
sougueur,tiaret,algeria,35.191,1.498,africa
souk el had,tiaret,algeria,35.4922,2.1825,africa
takhemaret,tiaret,algeria,35.1078,0.6825,africa
tiaret,tiaret,algeria,35.376,1.313,africa
tindouf,tindouf,algeria,27.674,-8.148,africa
cheraga,tipaza,algeria,36.4,1.817,africa
douera,tipaza,algeria,36.67,2.944,africa
hadjout,tipaza,algeria,36.514,2.418,africa
kolea,tipaza,algeria,36.639,2.773,africa
oued el alleug,tipaza,algeria,36.555,2.79,africa
sidi ghiles,tipaza,algeria,36.5811,2.1214,africa
tipasa,tipaza,algeria,36.59,2.448,africa
zaouia sidi abd el kader,tipaza,algeria,27.6,-0.3,africa
bordj chahid bounaama,tissemsilt,algeria,35.8517,1.6181,africa
metameur 'ain el rhorab,tissemsilt,algeria,35.7525,2.3064,africa
tissemsilt,tissemsilt,algeria,35.608,1.811,africa
arhribs,tizi ouzou,algeria,36.802,4.324,africa
azazga,tizi ouzou,algeria,36.745,4.372,africa
beni douala,tizi ouzou,algeria,36.622,4.088,africa
boghni,tizi ouzou,algeria,36.542,3.953,africa
boudjima,tizi ouzou,algeria,36.817,4.15,africa
freha,tizi ouzou,algeria,36.758,4.317,africa
mekla,tizi ouzou,algeria,36.687,4.267,africa
tigzirt,tizi ouzou,algeria,36.894,4.123,africa
timizart,tizi ouzou,algeria,36.8,4.267,africa
timoktene,tizi ouzou,algeria,27.0167,1.0167,africa
tirmitine,tizi ouzou,algeria,36.658,3.986,africa
tizi ouzou,tizi ouzou,algeria,36.717,4.05,africa
tizi rached,tizi ouzou,algeria,36.683,4.2,africa
tizi-n-tleta,tizi ouzou,algeria,36.55,4.05,africa
beni mester,tlemcen,algeria,34.871,-1.425,africa
beni saf,tlemcen,algeria,35.3036,-1.3808,africa
bensekrane,tlemcen,algeria,35.067,-1.217,africa
chetouane,tlemcen,algeria,34.921,-1.291,africa
hennaya,tlemcen,algeria,34.951,-1.368,africa
i-n-salah,tlemcen,algeria,27.2167,2.4667,africa
nedroma,tlemcen,algeria,35.0,-1.733,africa
ouled mimoun,tlemcen,algeria,34.903,-1.036,africa
remchi,tlemcen,algeria,35.061,-1.426,africa
sebdou,tlemcen,algeria,34.643,-1.333,africa
tlemcen,tlemcen,algeria,34.878,-1.315,africa
andorra la vella,andorra la vella,andorra,42.5,1.517,europe
canillo,canillo,andorra,42.567,1.6,europe
encamp,encamp,andorra,42.533,1.583,europe
les escaldes,escaldes-engordany,andorra,42.5,1.533,europe
la massana,la massana,andorra,42.55,1.517,europe
ordino,ordino,andorra,42.55,1.533,europe
sant julia de loria,sant julia de loria,andorra,42.467,1.5,europe
ambris,bengo,angola,-7.85,13.1167,africa
caxito,bengo,angola,-8.58,13.664,africa
dande,bengo,angola,-8.4667,13.3667,africa
gandange,bengo,angola,-9.7,14.4167,africa
lucala,bengo,angola,-9.6333,14.0667,africa
nabuangongo,bengo,angola,-8.0167,14.2,africa
baia farta,benguela,angola,-12.5997,13.2047,africa
balombo,benguela,angola,-12.35,14.7667,africa
benguela,benguela,angola,-12.578,13.407,africa
calacula,benguela,angola,-12.9,14.0833,africa
catumbela,benguela,angola,-12.431,13.547,africa
chongoroi,benguela,angola,-13.5667,13.95,africa
lobito,benguela,angola,-12.32,13.6,africa
mariano machado,benguela,angola,-13.0167,14.6333,africa
peembe,benguela,angola,-12.4667,14.1667,africa
vila do cubal,benguela,angola,-13.0333,14.25,africa
andulo,bie,angola,-11.4833,15.8333,africa
camacupa,bie,angola,-12.017,17.483,africa
catabola,bie,angola,-12.15,17.283,africa
chilonda,bie,angola,-11.3167,16.2,africa
chingwari,bie,angola,-12.55,16.3333,africa
chitembo,bie,angola,-13.5167,16.7667,africa
coemba,bie,angola,-12.15,18.0833,africa
kuito,bie,angola,-12.383,16.933,africa
vila macedo de cavaleiros,bie,angola,-11.4833,16.7,africa
vouga gare,bie,angola,-12.2333,16.7833,africa
buco zau,cabinda,angola,-4.7667,12.55,africa
cabinda,cabinda,angola,-5.55,12.2,africa
guilherme capelo,cabinda,angola,-5.2333,12.1333,africa
cuito cuanavale,cuando cubango,angola,-15.1667,19.1833,africa
kuchi,cuando cubango,angola,-14.65,16.9,africa
menongue,cuando cubango,angola,-14.667,17.7,africa
bula atumba,cuanza norte,angola,-8.6667,14.8,africa
caculo cabaca,cuanza norte,angola,-8.7333,15.1667,africa
camabatela,cuanza norte,angola,-8.183,15.367,africa
cambambe,cuanza norte,angola,-9.75,14.5,africa
caringa,cuanza norte,angola,-9.3,14.95,africa
fazenda catome,cuanza norte,angola,-9.3,14.9167,africa
golungo alto,cuanza norte,angola,-9.1333,14.7667,africa
luanda,cuanza norte,angola,-8.838,13.234,africa
ombuanginge,cuanza norte,angola,-9.1,15.55,africa
quibaxe,cuanza norte,angola,-8.5,14.6,africa
quibolongongo,cuanza norte,angola,-8.4667,15.25,africa
quicolunga,cuanza norte,angola,-8.5167,15.3167,africa
xa-mateba,cuanza norte,angola,-9.5167,17.8167,africa
benguela velha,cuanza sul,angola,-10.7333,13.75,africa
cabela,cuanza sul,angola,-10.85,14.3667,africa
cela,cuanza sul,angola,-11.35,15.1167,africa
cumbira,cuanza sul,angola,-11.0,14.6667,africa
dunduca,cuanza sul,angola,-11.1667,14.5167,africa
kalulo,cuanza sul,angola,-10.0,14.9,africa
kibala,cuanza sul,angola,-10.733,14.983,africa
massango,cuanza sul,angola,-11.3167,14.9333,africa
mussende,cuanza sul,angola,-10.5167,16.0167,africa
quienda,cuanza sul,angola,-10.6333,14.3333,africa
quilumbe da anga,cuanza sul,angola,-11.2333,14.3167,africa
sanjamba,cuanza sul,angola,-11.8167,14.9833,africa
sumbe,cuanza sul,angola,-11.2,13.833,africa
uco,cuanza sul,angola,-11.4,14.3,africa
cuvelai,cunene,angola,-15.6667,15.8,africa
kahama,cunene,angola,-16.2833,14.3167,africa
khitado,cunene,angola,-17.3167,13.9167,africa
ondjiva,cunene,angola,-17.067,15.733,africa
rocadas,cunene,angola,-16.75,14.9833,africa
bailundo,huambo,angola,-12.2,15.8667,africa
caala,huambo,angola,-12.853,15.561,africa
caluquembe,huambo,angola,-12.85,15.0667,africa
fazenda monte alegre,huambo,angola,-11.7333,16.15,africa
huambo,huambo,angola,-12.776,15.739,africa
longonjo,huambo,angola,-12.907,15.253,africa
luimbale,huambo,angola,-12.25,15.3167,africa
quingenge,huambo,angola,-12.8167,14.9333,africa
vila-nova,huambo,angola,-12.5667,16.2333,africa
caconda,huila,angola,-13.733,15.067,africa
caluquembe,huila,angola,-13.783,14.683,africa
chikombo,huila,angola,-14.1333,14.9167,africa
chipindo,huila,angola,-13.8167,15.7833,africa
kubango,huila,angola,-14.4667,16.3,africa
lubango,huila,angola,-14.917,13.5,africa
matala,huila,angola,-14.7333,15.0333,africa
quilenges,huila,angola,-14.0667,14.0833,africa
quipungo,huila,angola,-14.8167,14.55,africa
sao januaria,huila,angola,-15.0167,13.3833,africa
sao pedro da chibia,huila,angola,-15.1833,13.7,africa
techiriata,huila,angola,-14.6833,16.0333,africa
capenda,lunda norte,angola,-9.4167,18.4333,africa
cuango,lunda norte,angola,-9.1333,18.05,africa
dundu,lunda norte,angola,-7.3833,20.8333,africa
kuangula,lunda norte,angola,-8.4333,18.6333,africa
lovua,lunda norte,angola,-7.3333,20.1667,africa
lucapa,lunda norte,angola,-8.417,20.75,africa
sa muenze,lunda norte,angola,-9.05,19.2667,africa
alto kwilu,lunda sul,angola,-10.05,19.5167,africa
dala,lunda sul,angola,-11.0333,20.2,africa
kipolu,lunda sul,angola,-10.1333,19.2667,africa
nova chaves,lunda sul,angola,-10.6,21.3167,africa
saurimo,lunda sul,angola,-9.65,20.4,africa
calandula,malanje,angola,-9.1,15.95,africa
cambundi-catembo,malanje,angola,-10.0667,17.55,africa
catoio,malanje,angola,-9.3833,17.05,africa
cunda ria-baza,malanje,angola,-8.9167,17.0667,africa
kangandala,malanje,angola,-9.7833,16.4333,africa
luquembo,malanje,angola,-10.7333,17.7167,africa
malanje,malanje,angola,-9.545,16.345,africa
marimbe,malanje,angola,-8.3667,17.0167,africa
mola,malanje,angola,-8.7,16.5167,africa
mucari,malanje,angola,-9.4667,16.9167,africa
pacaca,malanje,angola,-9.4167,15.7333,africa
quirima,malanje,angola,-10.9,18.0833,africa
kangamba,moxico,angola,-13.6833,19.8667,africa
kazombo,moxico,angola,-11.9,22.9167,africa
luacano,moxico,angola,-11.2167,21.65,africa
luau,moxico,angola,-10.7,22.233,africa
luena,moxico,angola,-11.783,19.917,africa
namibe,namibe,angola,-15.196,12.152,africa
port alexander,namibe,angola,-15.8,11.85,africa
vila arriaga,namibe,angola,-14.7667,13.35,africa
virei,namibe,angola,-15.7167,12.95,africa
banza damba,uige,angola,-6.8833,15.0167,africa
buengas,uige,angola,-6.7333,15.9,africa
cangola,uige,angola,-7.95,15.8833,africa
matoio,uige,angola,-7.4333,14.65,africa
n'gage,uige,angola,-7.7667,15.2667,africa
quibatache,uige,angola,-7.3333,16.0167,africa
quicabato,uige,angola,-7.6667,15.6167,africa
quifuato,uige,angola,-7.3333,14.85,africa
quimbelo,uige,angola,-6.5167,16.2167,africa
quinva,uige,angola,-6.05,15.1,africa
quitalane,uige,angola,-7.1833,14.9,africa
uige,uige,angola,-7.617,15.05,africa
vambano,uige,angola,-7.0833,14.5167,africa
ambrizete,zaire,angola,-7.2333,12.8667,africa
bembe,zaire,angola,-6.8,13.3,africa
m'banza congo,zaire,angola,-6.2667,14.25,africa
quinambo,zaire,angola,-7.6667,13.0833,africa
soyo,zaire,angola,-6.133,12.367,africa
tomboco,zaire,angola,-6.1333,14.6167,africa
saint john's,saint john,antigua and barbuda,17.117,-61.85,america
adolfo gonzales chaves,buenos aires,argentina,-38.0333,-60.1,america
arenales,buenos aires,argentina,-34.2833,-61.2833,america
ayacucho,buenos aires,argentina,-37.15,-58.4833,america
azul,buenos aires,argentina,-36.783,-59.85,america
bahia blanca,buenos aires,argentina,-38.717,-62.283,america
balcarce,buenos aires,argentina,-37.8333,-58.25,america
balneario mar de ajo,buenos aires,argentina,-36.7167,-56.6667,america
balneario monte hermoso,buenos aires,argentina,-38.9833,-61.3,america
baradero,buenos aires,argentina,-33.7967,-59.5208,america
bartolome mitre,buenos aires,argentina,-34.05,-60.1167,america
benito juarez,buenos aires,argentina,-37.6667,-59.8,america
bragado,buenos aires,argentina,-35.1192,-60.5047,america
brandsen,buenos aires,argentina,-35.1717,-58.23,america
campana,buenos aires,argentina,-34.177,-58.921,america
canuelas,buenos aires,argentina,-35.0469,-58.7497,america
capilla del senor,buenos aires,argentina,-34.3,-59.1,america
capitan sarmiento,buenos aires,argentina,-34.1667,-59.8,america
carhue,buenos aires,argentina,-37.1833,-62.7333,america
carlos casares,buenos aires,argentina,-35.6264,-61.3603,america
carmen de areco,buenos aires,argentina,-34.3858,-59.8294,america
chacabuco,buenos aires,argentina,-34.642,-60.474,america
chascomus,buenos aires,argentina,-35.5667,-58.0167,america
chivilcoy,buenos aires,argentina,-34.908,-60.031,america
colon,buenos aires,argentina,-33.8914,-61.1097,america
coronel boerr,buenos aires,argentina,-35.95,-59.0667,america
coronel dorrego,buenos aires,argentina,-38.7,-61.283,america
coronel suarez,buenos aires,argentina,-37.4667,-61.9167,america
daireaux,buenos aires,argentina,-36.6,-61.75,america
darregueira,buenos aires,argentina,-37.7,-63.1667,america
dolores,buenos aires,argentina,-36.333,-57.667,america
general alvarado,buenos aires,argentina,-38.2667,-57.85,america
general alvear,buenos aires,argentina,-36.05,-60.0167,america
general belgrano,buenos aires,argentina,-35.7667,-58.5,america
general j. madariaga,buenos aires,argentina,-37.0,-57.15,america
general las heras,buenos aires,argentina,-34.9297,-58.9531,america
general villegas,buenos aires,argentina,-35.0333,-63.0167,america
henderson,buenos aires,argentina,-36.3,-61.7167,america
junin,buenos aires,argentina,-34.585,-60.959,america
la plata,buenos aires,argentina,-34.931,-57.949,america
lincoln,buenos aires,argentina,-34.865,-61.532,america
loberia,buenos aires,argentina,-38.15,-58.7833,america
lobos,buenos aires,argentina,-35.1853,-59.0947,america
los toldos,buenos aires,argentina,-34.995,-61.0367,america
lujan,buenos aires,argentina,-34.57,-59.105,america
magdalena,buenos aires,argentina,-35.0667,-57.5333,america
maipu,buenos aires,argentina,-36.8667,-57.8667,america
mar del plata,buenos aires,argentina,-38.0,-57.55,america
mariano moreno,buenos aires,argentina,-34.4633,-58.9292,america
mathew,buenos aires,argentina,-34.3831,-58.8489,america
mercedes,buenos aires,argentina,-34.654,-59.434,america
navarro,buenos aires,argentina,-35.0167,-59.2667,america
necochea,buenos aires,argentina,-38.55,-58.75,america
nueve de julio,buenos aires,argentina,-35.454,-60.891,america
olavarria,buenos aires,argentina,-36.9,-60.283,america
pedro luro,buenos aires,argentina,-39.4833,-62.6833,america
pehuajo,buenos aires,argentina,-35.8147,-61.9053,america
pergamino,buenos aires,argentina,-33.893,-60.573,america
pigue,buenos aires,argentina,-37.6167,-62.4167,america
pontevedra,buenos aires,argentina,-34.752,-58.712,america
puan,buenos aires,argentina,-37.55,-62.7167,america
punta alta,buenos aires,argentina,-38.883,-62.083,america
punta indio,buenos aires,argentina,-35.2667,-57.2333,america
quilmes,buenos aires,argentina,-34.72,-58.269,america
ranchos,buenos aires,argentina,-35.5236,-58.2956,america
rauch,buenos aires,argentina,-36.7667,-59.1,america
roque perez,buenos aires,argentina,-35.4167,-59.3333,america
saavedra,buenos aires,argentina,-37.75,-62.3667,america
san a. de giles,buenos aires,argentina,-34.4497,-59.4433,america
san antonio de areco,buenos aires,argentina,-34.25,-59.4667,america
san isidro,buenos aires,argentina,-34.471,-58.529,america
san nicolas,buenos aires,argentina,-33.33,-60.227,america
san pedro,buenos aires,argentina,-33.671,-59.683,america
san vicente,buenos aires,argentina,-34.967,-58.367,america
tandil,buenos aires,argentina,-37.317,-59.15,america
tigre,buenos aires,argentina,-34.426,-58.597,america
tornquist,buenos aires,argentina,-38.1,-62.2333,america
trenque lauquen,buenos aires,argentina,-35.9667,-62.7,america
tres arroyos,buenos aires,argentina,-38.383,-60.283,america
veinticinco de mayo,buenos aires,argentina,-35.428,-60.174,america
villa gesell,buenos aires,argentina,-37.25,-56.917,america
villalonga,buenos aires,argentina,-39.8833,-62.5833,america
zarate,buenos aires,argentina,-34.092,-59.035,america
andalgala,catamarca,argentina,-27.6,-66.3167,america
catamarca,catamarca,argentina,-28.467,-65.783,america
chumbicha,catamarca,argentina,-28.8667,-66.2333,america
londres,catamarca,argentina,-27.717,-67.117,america
recreo,catamarca,argentina,-29.267,-65.067,america
santa maria,catamarca,argentina,-26.6833,-66.0333,america
tinogasta,catamarca,argentina,-28.067,-67.567,america
barranqueras,chaco,argentina,-27.483,-58.933,america
campo largo,chaco,argentina,-26.8,-60.833,america
castelli,chaco,argentina,-25.95,-60.617,america
charata,chaco,argentina,-27.217,-61.2,america
coronel du graty,chaco,argentina,-27.667,-60.933,america
corzuela,chaco,argentina,-26.95,-60.967,america
fontana,chaco,argentina,-27.417,-59.033,america
general jose de san martin,chaco,argentina,-26.55,-59.35,america
general pinedo,chaco,argentina,-27.317,-61.283,america
la leonesa,chaco,argentina,-27.05,-58.717,america
machagai,chaco,argentina,-26.933,-60.05,america
pampa del infierno,chaco,argentina,-26.517,-61.167,america
presidencia de la plaza,chaco,argentina,-27.017,-59.85,america
presidencia roque saenz pena,chaco,argentina,-26.783,-60.45,america
puerto tirol,chaco,argentina,-27.383,-59.083,america
quitilipi,chaco,argentina,-26.867,-60.217,america
resistencia,chaco,argentina,-27.45,-58.983,america
san bernardo,chaco,argentina,-27.283,-60.7,america
santa sylvina,chaco,argentina,-27.817,-61.15,america
tres isletas,chaco,argentina,-26.35,-60.433,america
villa angela,chaco,argentina,-27.5833,-60.7167,america
villa berthet,chaco,argentina,-27.283,-60.417,america
alto rio senguerr,chubut,argentina,-45.0333,-70.8333,america
gastres,chubut,argentina,-42.2833,-69.2333,america
lago puelo,chubut,argentina,-42.083,-71.633,america
paso rio de mayo,chubut,argentina,-45.6833,-70.2667,america
puerto madryn,chubut,argentina,-42.767,-65.05,america
rada tilly,chubut,argentina,-45.933,-67.533,america
rawson,chubut,argentina,-43.3,-65.1,america
sarmiento,chubut,argentina,-45.6,-69.083,america
telsen,chubut,argentina,-42.4,-66.95,america
trelew,chubut,argentina,-43.25,-65.3,america
alta gracia,cordoba,argentina,-31.667,-64.433,america
arroyito,cordoba,argentina,-31.417,-63.05,america
bell ville,cordoba,argentina,-32.617,-62.7,america
brinkmann,cordoba,argentina,-30.867,-62.033,america
capilla del monte,cordoba,argentina,-30.85,-64.517,america
cordoba,cordoba,argentina,-31.4,-64.183,america
corral de bustos,cordoba,argentina,-33.283,-62.2,america
cruz del eje,cordoba,argentina,-30.733,-64.8,america
dean funes,cordoba,argentina,-30.4333,-64.35,america
embalse,cordoba,argentina,-32.183,-64.417,america
general cabrera,cordoba,argentina,-32.8,-63.867,america
general roca,cordoba,argentina,-32.733,-61.917,america
hernando,cordoba,argentina,-32.417,-63.733,america
la calera,cordoba,argentina,-31.333,-64.333,america
la carlota,cordoba,argentina,-33.433,-63.3,america
la falda,cordoba,argentina,-31.083,-64.5,america
la granja,cordoba,argentina,-31.017,-64.267,america
laboulaye,cordoba,argentina,-34.117,-63.4,america
leones,cordoba,argentina,-32.65,-62.3,america
malvinas argentinas,cordoba,argentina,-31.383,-64.067,america
monte cristo,cordoba,argentina,-31.35,-63.95,america
morteros,cordoba,argentina,-30.7,-62.0,america
oliva,cordoba,argentina,-32.05,-63.567,america
oncativo,cordoba,argentina,-31.917,-63.667,america
pilar,cordoba,argentina,-31.683,-63.9,america
rio cuarto,cordoba,argentina,-33.133,-64.35,america
rio tercero,cordoba,argentina,-32.183,-64.1,america
san francisco,cordoba,argentina,-31.433,-62.083,america
santa rosa de calamuchita,cordoba,argentina,-32.067,-64.55,america
santa rosa de rio 1,cordoba,argentina,-31.15,-63.3833,america
unquillo,cordoba,argentina,-31.233,-64.317,america
villa carlos paz,cordoba,argentina,-31.4,-64.517,america
villa del rosario,cordoba,argentina,-31.5833,-63.5333,america
villa dolores,cordoba,argentina,-31.933,-65.2,america
villa general belgrano,cordoba,argentina,-31.983,-64.567,america
villa huidobro,cordoba,argentina,-34.833,-64.583,america
villa maria,cordoba,argentina,-32.417,-63.25,america
villa nueva,cordoba,argentina,-32.433,-63.25,america
villa rumipal,cordoba,argentina,-32.183,-64.483,america
bella vista,corrientes,argentina,-28.5,-59.05,america
corrientes,corrientes,argentina,-27.467,-58.833,america
cruz de los milagros,corrientes,argentina,-28.833,-59.017,america
curuzu cuatia,corrientes,argentina,-29.7833,-58.05,america
empedrado,corrientes,argentina,-27.95,-58.8,america
galarza,corrientes,argentina,-28.1,-56.6833,america
gobernador ingeniero valentin virasoro,corrientes,argentina,-28.05,-56.0333,america
goya,corrientes,argentina,-29.133,-59.267,america
ituzaingo,corrientes,argentina,-27.6,-56.6833,america
mburucuya,corrientes,argentina,-28.05,-58.2333,america
mercedes,corrientes,argentina,-29.2,-58.083,america
monte caseros,corrientes,argentina,-30.25,-57.65,america
paso de los libres,corrientes,argentina,-29.717,-57.083,america
saladas,corrientes,argentina,-28.25,-58.633,america
san lorenzo,corrientes,argentina,-28.133,-58.767,america
san luis del palmar,corrientes,argentina,-27.517,-58.567,america
san roque,corrientes,argentina,-28.5667,-58.7167,america
sauce,corrientes,argentina,-30.0833,-58.7667,america
buenos aires,distrito federal,argentina,-34.588,-58.673,america
comodoro rivadavia,distrito federal,argentina,-45.867,-67.5,america
esquel,distrito federal,argentina,-42.9,-71.3167,america
estancia el maiten,distrito federal,argentina,-42.05,-71.1667,america
concepcion del uruguay,entre rios,argentina,-32.483,-58.228,america
concordia,entre rios,argentina,-31.4,-58.033,america
crespo,entre rios,argentina,-32.033,-60.317,america
diamante,entre rios,argentina,-32.064,-60.643,america
federal,entre rios,argentina,-30.95,-58.8,america
gualeguay,entre rios,argentina,-33.144,-59.329,america
gualeguaychu,entre rios,argentina,-33.01,-58.514,america
la paz,entre rios,argentina,-30.75,-59.65,america
nogoya,entre rios,argentina,-32.3997,-59.7994,america
parana,entre rios,argentina,-31.733,-60.533,america
puerto ibicuy,entre rios,argentina,-33.733,-59.183,america
rosario del tala,entre rios,argentina,-32.298,-59.139,america
san jose de feliciano,entre rios,argentina,-30.3833,-58.75,america
san salvador,entre rios,argentina,-31.617,-58.5,america
santa ana,entre rios,argentina,-30.9,-57.933,america
santa elena,entre rios,argentina,-30.95,-59.8,america
urdinarrain,entre rios,argentina,-32.683,-58.883,america
viale,entre rios,argentina,-31.883,-60.017,america
victoria,entre rios,argentina,-32.609,-60.169,america
villa del rosario,entre rios,argentina,-30.783,-57.917,america
villa elisa,entre rios,argentina,-32.167,-58.4,america
villa mantero,entre rios,argentina,-32.4,-58.75,america
villa paranacito,entre rios,argentina,-33.733,-58.667,america
villaguay,entre rios,argentina,-31.85,-59.017,america
clorinda,formosa,argentina,-25.283,-57.717,america
comandante fontana,formosa,argentina,-25.333,-59.683,america
formosa,formosa,argentina,-26.183,-58.183,america
guillermo n. juarez,formosa,argentina,-23.9,-61.85,america
las lomitas,formosa,argentina,-24.7,-60.6,america
pirane,formosa,argentina,-25.7167,-59.1,america
abra pampa,jujuy,argentina,-22.717,-65.7,america
humahuaca,jujuy,argentina,-23.2,-65.35,america
jujuy,jujuy,argentina,-24.183,-65.3,america
la mendieta,jujuy,argentina,-24.317,-64.967,america
libertador general san martin,jujuy,argentina,-23.8,-64.8,america
monte rico,jujuy,argentina,-24.45,-65.1667,america
rinconada,jujuy,argentina,-22.4333,-66.1667,america
san pedro,jujuy,argentina,-24.233,-64.867,america
susques,jujuy,argentina,-23.4167,-66.4833,america
general acha,la pampa,argentina,-37.383,-64.6,america
general pico,la pampa,argentina,-35.667,-63.733,america
rio colorado,la pampa,argentina,-38.9667,-64.0833,america
santa rosa,la pampa,argentina,-36.617,-64.283,america
veinticinco de mayo,la pampa,argentina,-37.8,-67.683,america
victorica,la pampa,argentina,-36.217,-65.45,america
chamical,la rioja,argentina,-30.35,-66.317,america
chepes,la rioja,argentina,-31.2667,-66.6,america
chilecito,la rioja,argentina,-29.167,-67.5,america
la rioja,la rioja,argentina,-29.433,-66.85,america
villa union,la rioja,argentina,-29.3,-68.2,america
general alvear,mendoza,argentina,-34.9667,-67.7,america
la paz,mendoza,argentina,-33.4667,-67.55,america
lujan,mendoza,argentina,-33.05,-68.867,america
mendoza,mendoza,argentina,-32.883,-68.817,america
rivadavia,mendoza,argentina,-33.183,-68.467,america
san martin,mendoza,argentina,-33.067,-68.467,america
san rafael,mendoza,argentina,-34.6,-68.333,america
santa rosa,mendoza,argentina,-33.25,-68.15,america
tunuyan,mendoza,argentina,-33.5667,-69.0167,america
uspallata,mendoza,argentina,-32.5833,-69.3333,america
villa malargue,mendoza,argentina,-35.4667,-69.5833,america
almafuerte,misiones,argentina,-27.517,-55.4,america
azara,misiones,argentina,-28.067,-55.683,america
bernardo de irigoyen,misiones,argentina,-26.25,-53.65,america
campo grande,misiones,argentina,-27.217,-54.967,america
candelaria,misiones,argentina,-27.467,-55.733,america
eldorado,misiones,argentina,-26.383,-54.667,america
obera,misiones,argentina,-27.483,-55.133,america
posadas,misiones,argentina,-27.383,-55.883,america
puerto leoni,misiones,argentina,-26.983,-55.167,america
puerto libertad,misiones,argentina,-25.917,-54.6,america
puerto rico,misiones,argentina,-26.8,-55.033,america
tobuna,misiones,argentina,-26.4667,-53.9,america
centenario,neuquen,argentina,-38.8,-68.133,america
chos malal,neuquen,argentina,-37.383,-70.267,america
junin de los andes,neuquen,argentina,-39.9333,-71.0833,america
las lajas,neuquen,argentina,-38.517,-70.367,america
neuquen,neuquen,argentina,-38.95,-68.067,america
plaza huincul,neuquen,argentina,-38.917,-69.15,america
plottier,neuquen,argentina,-38.967,-68.233,america
san martin de los andes,neuquen,argentina,-40.1667,-71.35,america
senillosa,neuquen,argentina,-39.0,-68.417,america
villa la angostura,neuquen,argentina,-40.783,-71.667,america
zapala,neuquen,argentina,-38.9,-70.067,america
allen,rio negro,argentina,-38.967,-67.833,america
catriel,rio negro,argentina,-37.867,-67.833,america
choele choel,rio negro,argentina,-39.267,-65.683,america
cinco saltos,rio negro,argentina,-38.817,-68.067,america
cipolletti,rio negro,argentina,-38.933,-67.983,america
comallo,rio negro,argentina,-41.033,-70.267,america
general conesa,rio negro,argentina,-40.1,-64.433,america
general roca,rio negro,argentina,-39.033,-67.583,america
ingeniero jacobacci,rio negro,argentina,-41.3,-69.583,america
san antonio oeste,rio negro,argentina,-40.733,-64.933,america
san carlos de bariloche,rio negro,argentina,-41.15,-71.3,america
sierra colorada,rio negro,argentina,-40.583,-67.8,america
viedma,rio negro,argentina,-40.8,-63.0,america
villa regina,rio negro,argentina,-39.1,-67.067,america
cafayate,salta,argentina,-26.083,-65.967,america
campo quijano,salta,argentina,-24.917,-65.65,america
embarcacion,salta,argentina,-23.2167,-64.1,america
general enrique mosconi,salta,argentina,-22.6,-63.817,america
general guemes,salta,argentina,-24.6667,-65.05,america
j.v. gonzalez,salta,argentina,-25.0833,-64.1833,america
los blancos,salta,argentina,-23.6,-62.6,america
pichanal,salta,argentina,-23.3167,-64.2167,america
rosario de la frontera,salta,argentina,-25.8,-64.9667,america
salta,salta,argentina,-24.783,-65.417,america
san antonio de los cobres,salta,argentina,-24.183,-66.35,america
san ramon de la nueva oran,salta,argentina,-23.133,-64.333,america
tartagal,salta,argentina,-22.533,-63.817,america
caucete,san juan,argentina,-31.654,-68.285,america
chimbas,san juan,argentina,-31.483,-68.533,america
jachal,san juan,argentina,-30.2425,-68.7458,america
pocito,san juan,argentina,-31.683,-68.583,america
rodeo,san juan,argentina,-30.2164,-69.1394,america
san juan,san juan,argentina,-31.538,-68.536,america
justo daract,san luis,argentina,-33.867,-65.183,america
mercedes,san luis,argentina,-33.667,-65.467,america
san luis,san luis,argentina,-33.3,-66.35,america
28 de noviembre,santa cruz,argentina,-51.65,-72.3,america
caleta olivia,santa cruz,argentina,-46.433,-67.533,america
canadon leon,santa cruz,argentina,-48.7667,-70.25,america
comandante luis piedra buena,santa cruz,argentina,-49.983,-68.9,america
el calafate,santa cruz,argentina,-50.333,-72.3,america
estancia la ensenada,santa cruz,argentina,-48.2833,-72.1667,america
las heras,santa cruz,argentina,-46.55,-68.95,america
perito moreno,santa cruz,argentina,-46.6,-70.933,america
pico truncado,santa cruz,argentina,-46.8,-67.967,america
puerto deseado,santa cruz,argentina,-47.75,-65.9,america
puerto san julian,santa cruz,argentina,-49.3,-67.7167,america
rio gallegos,santa cruz,argentina,-51.633,-69.217,america
alcorta,santa fe,argentina,-33.5333,-61.1167,america
armstrong,santa fe,argentina,-32.782,-61.608,america
arroyo seco,santa fe,argentina,-33.15,-60.517,america
avellaneda,santa fe,argentina,-29.117,-59.667,america
carcarana,santa fe,argentina,-32.85,-61.15,america
casilda,santa fe,argentina,-33.044,-61.168,america
ceres,santa fe,argentina,-29.883,-61.95,america
coronda,santa fe,argentina,-31.967,-60.917,america
el trebol,santa fe,argentina,-32.1892,-61.7261,america
esperanza,santa fe,argentina,-31.45,-60.933,america
firmat,santa fe,argentina,-33.45,-61.483,america
funes,santa fe,argentina,-32.917,-60.817,america
galvez,santa fe,argentina,-32.0283,-61.2222,america
granadero baigorria,santa fe,argentina,-32.867,-60.7,america
laguna paiva,santa fe,argentina,-31.317,-60.65,america
las parejas,santa fe,argentina,-32.683,-61.533,america
las rosas,santa fe,argentina,-32.477,-61.586,america
malabrigo,santa fe,argentina,-29.35,-59.983,america
rafaela,santa fe,argentina,-31.267,-61.483,america
romang,santa fe,argentina,-29.5,-59.7667,america
rosario,santa fe,argentina,-32.951,-60.666,america
rufino,santa fe,argentina,-34.267,-62.7,america
san carlos centro,santa fe,argentina,-31.733,-61.1,america
san cristobal,santa fe,argentina,-30.3167,-61.2333,america
san javier,santa fe,argentina,-30.583,-59.95,america
san jorge,santa fe,argentina,-31.9,-61.867,america
san justo,santa fe,argentina,-30.783,-60.583,america
santa fe,santa fe,argentina,-31.633,-60.7,america
sunchales,santa fe,argentina,-30.933,-61.567,america
tostado,santa fe,argentina,-29.233,-61.767,america
venado tuerto,santa fe,argentina,-33.75,-61.967,america
vera,santa fe,argentina,-29.467,-60.217,america
villa canas,santa fe,argentina,-34.0,-61.6,america
villa constitucion,santa fe,argentina,-33.233,-60.333,america
villa ocampo,santa fe,argentina,-28.467,-59.367,america
ciudad de loreto,santiago del estero,argentina,-28.3,-64.2,america
colonia dora,santiago del estero,argentina,-28.6,-62.95,america
frias,santiago del estero,argentina,-28.65,-65.15,america
las termas de rio hondo,santiago del estero,argentina,-27.4833,-64.8667,america
monte quemado,santiago del estero,argentina,-25.8,-62.8667,america
quimili,santiago del estero,argentina,-27.6333,-62.4167,america
santiago del estero,santiago del estero,argentina,-27.783,-64.267,america
villa ojo de agua,santiago del estero,argentina,-29.517,-63.7,america
rio grande,tierra del fuego,argentina,-53.7833,-67.7,america
tolhuin,tierra del fuego,argentina,-54.5333,-67.2,america
ushuaia,tierra del fuego,argentina,-54.8,-68.3,america
aguilares,tucuman,argentina,-27.4333,-65.6167,america
bella vista,tucuman,argentina,-27.0333,-65.3,america
concepcion,tucuman,argentina,-27.3333,-65.5833,america
famailla,tucuman,argentina,-27.05,-65.4,america
monteros,tucuman,argentina,-27.1667,-65.5,america
trancas,tucuman,argentina,-26.2167,-65.2833,america
tucuman,tucuman,argentina,-26.817,-65.217,america
ashtarak,aragatsotn,armenia,40.302,44.359,asia
artashat,ararat,armenia,39.954,44.551,asia
marmarashen,ararat,armenia,40.058,44.471,asia
vedi,ararat,armenia,39.911,44.728,asia
aknalich,armavir,armenia,40.143,44.148,asia
ejmiatsin,armavir,armenia,40.173,44.293,asia
hoktember,armavir,armenia,40.136,44.014,asia
gavar,geghark'unik',armenia,40.359,45.127,asia
martuni,geghark'unik',armenia,40.145,45.306,asia
sevan,geghark'unik',armenia,40.555,44.954,asia
vardenik,geghark'unik',armenia,40.135,45.436,asia
vardenis,geghark'unik',armenia,40.181,45.728,asia
verin getashen,geghark'unik',armenia,40.133,45.249,asia
abovyan,kotayk',armenia,40.269,44.624,asia
arzni,kotayk',armenia,40.296,44.596,asia
byureghavan,kotayk',armenia,40.315,44.594,asia
fantan,kotayk',armenia,40.394,44.685,asia
hrazdan,kotayk',armenia,40.502,44.755,asia
yeghvard,kotayk',armenia,40.322,44.481,asia
alaverdi,lorri,armenia,41.131,44.652,asia
arevashogh,lorri,armenia,40.861,44.273,asia
tashir,lorri,armenia,41.124,44.282,asia
urrut,lorri,armenia,41.071,44.397,asia
vanadzor,lorri,armenia,40.813,44.488,asia
anushavan,shirak,armenia,40.642,43.982,asia
gyumri,shirak,armenia,40.789,43.848,asia
pemzashen,shirak,armenia,40.593,43.94,asia
agarak,syunik',armenia,39.204,46.547,asia
brnakot,syunik',armenia,39.497,45.973,asia
goris,syunik',armenia,39.508,46.339,asia
kapan,syunik',armenia,39.201,46.415,asia
tegh,syunik',armenia,39.555,46.476,asia
berd,tavush,armenia,40.881,45.392,asia
dilijan,tavush,armenia,40.741,44.863,asia
ijevan,tavush,armenia,40.876,45.149,asia
mosesgegh,tavush,armenia,40.906,45.491,asia
gladzor,vayots' dzor,armenia,39.778,45.348,asia
surenavan,vayots' dzor,armenia,39.75,44.8,asia
yerevan,yerevan,armenia,40.181,44.514,asia
fyshwick,australian capital territory,australia,-35.333,149.167,australia
albury,new south wales,australia,-36.083,146.917,australia
armidale,new south wales,australia,-30.517,151.65,australia
ballina,new south wales,australia,-28.867,153.567,australia
batemans bay,new south wales,australia,-35.717,150.183,australia
bathurst,new south wales,australia,-33.417,149.567,australia
bolwarra,new south wales,australia,-32.717,151.567,australia
boomanoomana,new south wales,australia,-35.883,145.783,australia
bourke,new south wales,australia,-30.1,145.933,australia
bowral,new south wales,australia,-34.467,150.417,australia
broken hill,new south wales,australia,-31.95,141.433,australia
budgee budgee,new south wales,australia,-32.533,149.667,australia
byron bay,new south wales,australia,-28.65,153.617,australia
campbelltown,new south wales,australia,-34.067,150.817,australia
casino,new south wales,australia,-28.867,153.05,australia
cessnock,new south wales,australia,-32.833,151.35,australia
chinderah,new south wales,australia,-28.233,153.55,australia
coffs harbour,new south wales,australia,-30.3,153.133,australia
cooma,new south wales,australia,-36.233,149.133,australia
cowra,new south wales,australia,-33.833,148.683,australia
deniliquin,new south wales,australia,-35.533,144.967,australia
dubbo,new south wales,australia,-32.25,148.617,australia
farley,new south wales,australia,-32.733,151.517,australia
forbes,new south wales,australia,-33.383,148.017,australia
forster,new south wales,australia,-32.167,152.517,australia
goonellabah,new south wales,australia,-28.817,153.317,australia
goulburn,new south wales,australia,-34.75,149.717,australia
grafton,new south wales,australia,-29.683,152.933,australia
griffith,new south wales,australia,-34.283,146.033,australia
gunnedah,new south wales,australia,-30.983,150.25,australia
homebush,new south wales,australia,-33.867,151.083,australia
inverell,new south wales,australia,-29.783,151.117,australia
ivanhoe,new south wales,australia,-32.9,144.3,australia
katoomba,new south wales,australia,-33.7,150.3,australia
kelso,new south wales,australia,-33.417,149.6,australia
kempsey,new south wales,australia,-31.083,152.833,australia
kiama,new south wales,australia,-34.683,150.867,australia
kurri kurri,new south wales,australia,-32.817,151.483,australia
leeton,new south wales,australia,-34.567,146.4,australia
lithgow,new south wales,australia,-33.483,150.15,australia
maclean,new south wales,australia,-29.467,153.217,australia
mangrove mountain,new south wales,australia,-33.3,151.2,australia
merimbula,new south wales,australia,-36.9,149.9,australia
moree,new south wales,australia,-29.467,149.85,australia
moss vale,new south wales,australia,-34.55,150.383,australia
muswellbrook,new south wales,australia,-32.267,150.9,australia
narrabri,new south wales,australia,-30.317,149.783,australia
newcastle,new south wales,australia,-32.917,151.75,australia
north lismore,new south wales,australia,-28.8,153.283,australia
nowra,new south wales,australia,-34.883,150.6,australia
orange,new south wales,australia,-33.283,149.1,australia
parkes,new south wales,australia,-33.133,148.183,australia
parkville,new south wales,australia,-31.983,150.867,australia
penrith,new south wales,australia,-33.75,150.7,australia
piggabeen,new south wales,australia,-28.183,153.467,australia
port macquarie,new south wales,australia,-31.433,152.917,australia
quakers hill,new south wales,australia,-33.733,150.883,australia
queanbeyan,new south wales,australia,-35.35,149.233,australia
raymond terrace,new south wales,australia,-32.75,151.75,australia
richmond,new south wales,australia,-33.6,150.767,australia
singleton,new south wales,australia,-32.567,151.183,australia
sydney,new south wales,australia,-33.883,151.217,australia
tamworth,new south wales,australia,-31.1,150.933,australia
taree,new south wales,australia,-31.9,152.467,australia
tumut,new south wales,australia,-35.3,148.217,australia
ulladulla,new south wales,australia,-35.35,150.467,australia
wagga wagga,new south wales,australia,-35.117,147.367,australia
wilcannia,new south wales,australia,-31.5667,143.3833,australia
wollongong,new south wales,australia,-34.433,150.883,australia
young,new south wales,australia,-34.317,148.3,australia
adelaide river,northern territory,australia,-13.25,131.1,australia
alice springs,northern territory,australia,-23.7,133.883,australia
katherine,northern territory,australia,-14.467,132.267,australia
mcminns lagoon,northern territory,australia,-12.533,131.05,australia
playford,northern territory,australia,-13.8167,131.8167,australia
stuart park,northern territory,australia,-12.443,130.845,australia
atherton,queensland,australia,-17.267,145.483,australia
ayr,queensland,australia,-19.583,147.4,australia
barcaldine,queensland,australia,-23.5667,145.2833,australia
bedourie,queensland,australia,-24.35,139.4667,australia
belmont,queensland,australia,-27.5,153.117,australia
biloela,queensland,australia,-24.417,150.5,australia
birdsville,queensland,australia,-25.9,139.3667,australia
bongaree,queensland,australia,-27.08,153.159,australia
boulia,queensland,australia,-22.9,139.9,australia
bowen,queensland,australia,-20.017,148.233,australia
buderim,queensland,australia,-26.683,153.05,australia
bundaberg,queensland,australia,-24.85,152.35,australia
burketown,queensland,australia,-17.7167,139.5667,australia
burpengary,queensland,australia,-27.167,152.95,australia
caboolture,queensland,australia,-27.083,152.95,australia
cairns,queensland,australia,-16.917,145.767,australia
caloundra,queensland,australia,-26.8,153.133,australia
camooweal,queensland,australia,-19.9167,138.1167,australia
charleville,queensland,australia,-26.4,146.25,australia
charters towers,queensland,australia,-20.1,146.267,australia
cloncurry,queensland,australia,-20.7,140.5,australia
coolum beach,queensland,australia,-26.533,153.1,australia
dalby,queensland,australia,-27.183,151.267,australia
eidsvold,queensland,australia,-25.3667,151.1333,australia
elphinstone,queensland,australia,-21.5,148.2333,australia
emerald,queensland,australia,-23.533,148.167,australia
georgetown,queensland,australia,-18.3,143.533,australia
gladstone,queensland,australia,-23.85,151.25,australia
gold coast,queensland,australia,-28.0,153.433,australia
goondiwindi,queensland,australia,-28.55,150.317,australia
gympie,queensland,australia,-26.183,152.667,australia
hughenden,queensland,australia,-20.85,144.2,australia
ingham,queensland,australia,-18.65,146.167,australia
innisfail,queensland,australia,-17.533,146.033,australia
kimberly,queensland,australia,-17.4833,140.8333,australia
kingaroy,queensland,australia,-26.533,151.833,australia
longreach,queensland,australia,-23.45,144.25,australia
mackay,queensland,australia,-21.15,149.2,australia
mareeba,queensland,australia,-17.0,145.433,australia
maryborough,queensland,australia,-25.533,152.7,australia
mooloolaba,queensland,australia,-26.683,153.117,australia
mount isa,queensland,australia,-20.733,139.5,australia
nambour,queensland,australia,-26.633,152.95,australia
nerang,queensland,australia,-27.983,153.333,australia
one mile,queensland,australia,-27.633,152.75,australia
port douglas,queensland,australia,-16.483,145.467,australia
quilpie,queensland,australia,-26.6167,144.25,australia
redlynch,queensland,australia,-16.883,145.7,australia
richmond,queensland,australia,-20.717,143.133,australia
rockhampton,queensland,australia,-23.383,150.5,australia
roma,queensland,australia,-26.583,148.783,australia
scarness,queensland,australia,-25.283,152.85,australia
south brisbane,queensland,australia,-27.483,153.017,australia
southport,queensland,australia,-27.967,153.4,australia
stanmore,queensland,australia,-27.75,153.217,australia
strathdickie,queensland,australia,-20.333,148.617,australia
thargomindah,queensland,australia,-28.0,143.817,australia
theodore,queensland,australia,-24.95,150.083,australia
toowoomba,queensland,australia,-27.55,151.967,australia
townsville,queensland,australia,-19.25,146.8,australia
upper coomera,queensland,australia,-27.9,153.3,australia
warwick,queensland,australia,-28.233,152.017,australia
weipa,queensland,australia,-12.667,141.867,australia
windorah,queensland,australia,-25.433,142.65,australia
winton,queensland,australia,-22.4,143.033,australia
woodridge,queensland,australia,-27.633,153.1,australia
yeppoon,queensland,australia,-23.133,150.733,australia
adelaide,south australia,australia,-34.933,138.6,australia
amata,south australia,australia,-26.1667,131.15,australia
berri,south australia,australia,-34.283,140.6,australia
bordertown,south australia,australia,-36.317,140.767,australia
ceduna,south australia,australia,-32.117,133.667,australia
clare,south australia,australia,-33.833,138.6,australia
cowell,south australia,australia,-33.683,136.917,australia
flinders,south australia,australia,-32.8,134.217,australia
gawler,south australia,australia,-34.6,138.733,australia
kimba,south australia,australia,-33.15,136.433,australia
kingoonya,south australia,australia,-30.9,135.3,australia
meningie,south australia,australia,-35.7,139.333,australia
mount barker,south australia,australia,-35.067,138.867,australia
mount gambier,south australia,australia,-37.833,140.767,australia
murray bridge,south australia,australia,-35.117,139.267,australia
penola,south australia,australia,-37.383,140.817,australia
peterborough,south australia,australia,-32.967,138.833,australia
port augusta,south australia,australia,-32.5,137.767,australia
port caroline,south australia,australia,-36.8333,139.85,australia
port lincoln,south australia,australia,-34.733,135.867,australia
port pirie,south australia,australia,-33.183,138.017,australia
tumby bay,south australia,australia,-34.383,136.083,australia
victor harbor,south australia,australia,-35.567,138.617,australia
wallaroo,south australia,australia,-33.933,137.633,australia
whyalla,south australia,australia,-33.033,137.583,australia
woomera,south australia,australia,-31.15,136.8,australia
bicheno,tasmania,australia,-41.879,148.289,australia
cooee,tasmania,australia,-41.067,145.883,australia
devonport,tasmania,australia,-41.167,146.35,australia
kingston beach,tasmania,australia,-42.983,147.317,australia
launceston,tasmania,australia,-41.45,147.167,australia
new town,tasmania,australia,-42.86,147.308,australia
oatlands,tasmania,australia,-42.3,147.367,australia
queenstown,tasmania,australia,-42.083,145.55,australia
scottsdale,tasmania,australia,-41.15,147.517,australia
smithton,tasmania,australia,-40.833,145.117,australia
anglesea,victoria,australia,-38.417,144.167,australia
ararat,victoria,australia,-37.283,142.933,australia
bairnsdale,victoria,australia,-37.833,147.617,australia
ballarat,victoria,australia,-37.567,143.85,australia
benalla,victoria,australia,-36.55,145.983,australia
bendigo,victoria,australia,-36.767,144.283,australia
colac,victoria,australia,-38.333,143.583,australia
craigieburn,victoria,australia,-37.6,144.95,australia
cranbourne,victoria,australia,-38.083,145.25,australia
echuca,victoria,australia,-36.133,144.75,australia
endeavour hills,victoria,australia,-37.974,145.256,australia
frankston east,victoria,australia,-38.133,145.133,australia
geelong,victoria,australia,-38.158,144.35,australia
hamilton,victoria,australia,-37.75,142.033,australia
horsham,victoria,australia,-36.717,142.2,australia
lara,victoria,australia,-38.017,144.4,australia
leopold,victoria,australia,-38.183,144.467,australia
maryborough,victoria,australia,-37.05,143.75,australia
melbourne,victoria,australia,-37.817,144.967,australia
melton,victoria,australia,-37.683,144.583,australia
mildura,victoria,australia,-34.2,142.15,australia
moe,victoria,australia,-38.167,146.267,australia
montrose,victoria,australia,-37.817,145.35,australia
mornington,victoria,australia,-38.217,145.033,australia
morwell,victoria,australia,-38.233,146.4,australia
north wonthaggi,victoria,australia,-38.6,145.6,australia
ouyen,victoria,australia,-35.067,142.317,australia
pakenham,victoria,australia,-38.067,145.483,australia
portland,victoria,australia,-38.333,141.6,australia
sale,victoria,australia,-38.1,147.067,australia
seymour,victoria,australia,-37.0333,145.1333,australia
shepparton,victoria,australia,-36.383,145.4,australia
somerville,victoria,australia,-38.217,145.167,australia
stawell,victoria,australia,-37.05,142.767,australia
sunbury,victoria,australia,-37.583,144.733,australia
swan hill,victoria,australia,-35.35,143.567,australia
traralgon,victoria,australia,-38.183,146.533,australia
wallan,victoria,australia,-37.4167,144.9833,australia
wangaratta,victoria,australia,-36.367,146.333,australia
warragul,victoria,australia,-38.167,145.933,australia
warrnambool,victoria,australia,-38.383,142.483,australia
wodonga,victoria,australia,-36.117,146.883,australia
albany,western australia,australia,-35.017,117.892,australia
australind,western australia,australia,-33.267,115.717,australia
broome,western australia,australia,-17.967,122.233,australia
bunbury,western australia,australia,-33.333,115.633,australia
busselton,western australia,australia,-33.65,115.333,australia
carnarvon,western australia,australia,-24.867,113.633,australia
devan find mining centre,western australia,australia,-22.9,119.4,australia
esperance,western australia,australia,-33.867,121.9,australia
exmouth,western australia,australia,-21.933,114.133,australia
geraldton,western australia,australia,-28.767,114.6,australia
gingin,western australia,australia,-31.35,115.9,australia
halls creek,western australia,australia,-18.267,127.767,australia
kalbarri,western australia,australia,-27.667,114.167,australia
kalgoorlie,western australia,australia,-30.75,121.467,australia
karratha,western australia,australia,-20.737,116.846,australia
karratha,western australia,australia,-20.7365,116.8464,australia
katanning,western australia,australia,-33.7,117.55,australia
kununurra,western australia,australia,-15.767,128.733,australia
kwinana,western australia,australia,-32.25,115.767,australia
laverton,western australia,australia,-28.633,122.417,australia
leonora,western australia,australia,-28.883,121.317,australia
mandurah,western australia,australia,-32.55,115.7,australia
manjimup,western australia,australia,-34.233,116.15,australia
maylands,western australia,australia,-31.933,115.883,australia
meekatharra,western australia,australia,-26.6,118.483,australia
merredin,western australia,australia,-31.483,118.267,australia
morawa,western australia,australia,-29.217,116.0,australia
mount barker,western australia,australia,-34.633,117.667,australia
mount magnet,western australia,australia,-28.067,117.817,australia
narrogin,western australia,australia,-32.933,117.167,australia
newman,western australia,australia,-23.367,119.733,australia
norseman,western australia,australia,-32.2,121.767,australia
northam,western australia,australia,-31.667,116.667,australia
onslow,western australia,australia,-21.65,115.1,australia
port denison,western australia,australia,-29.283,114.917,australia
port hedland,western australia,australia,-20.317,118.567,australia
ravensthorpe,western australia,australia,-33.583,120.033,australia
roebourne,western australia,australia,-20.783,117.133,australia
southern cross,western australia,australia,-31.217,119.317,australia
three springs,western australia,australia,-29.533,115.75,australia
two rocks,western australia,australia,-31.551,115.589,australia
wagin,western australia,australia,-33.3,117.35,australia
wyndham,western australia,australia,-15.467,128.1,australia
eisenstadt,burgenland,austria,47.85,16.517,europe
jennersdorf,burgenland,austria,46.939,16.147,europe
neuhaus am klausenbach,burgenland,austria,46.867,16.033,europe
feldkirchen,karnten,austria,46.717,14.1,europe
klagenfurt,karnten,austria,46.625,14.305,europe
sankt andra,karnten,austria,46.766,14.824,europe
sankt veit,karnten,austria,46.768,14.36,europe
spittal,karnten,austria,46.8,13.5,europe
velden am worthersee,karnten,austria,46.616,14.046,europe
villach,karnten,austria,46.61,13.856,europe
volkermarkt,karnten,austria,46.662,14.634,europe
wolfsberg,karnten,austria,46.841,14.844,europe
amstetten,niederosterreich,austria,48.117,14.867,europe
bad voslau,niederosterreich,austria,47.967,16.2,europe
baden,niederosterreich,austria,48.017,16.233,europe
berndorf,niederosterreich,austria,47.95,16.1,europe
deutsch-wagram,niederosterreich,austria,48.3,16.567,europe
ebreichsdorf,niederosterreich,austria,47.95,16.4,europe
ganserndorf,niederosterreich,austria,48.35,16.733,europe
hollabrunn,niederosterreich,austria,48.55,16.083,europe
klosterneuburg,niederosterreich,austria,48.3,16.317,europe
korneuburg,niederosterreich,austria,48.35,16.333,europe
krems,niederosterreich,austria,48.417,15.6,europe
maria enzersdorf,niederosterreich,austria,48.1,16.283,europe
mistelbach,niederosterreich,austria,48.57,16.577,europe
modling,niederosterreich,austria,48.083,16.283,europe
neunkirchen,niederosterreich,austria,47.717,16.083,europe
perchtoldsdorf,niederosterreich,austria,48.117,16.267,europe
purkersdorf,niederosterreich,austria,48.2,16.167,europe
sankt polten,niederosterreich,austria,48.2,15.633,europe
sankt valentin,niederosterreich,austria,48.167,14.517,europe
schwechat,niederosterreich,austria,48.133,16.467,europe
stockerau,niederosterreich,austria,48.383,16.217,europe
strasshof,niederosterreich,austria,48.317,16.667,europe
ternitz,niederosterreich,austria,47.717,16.033,europe
traiskirchen,niederosterreich,austria,48.017,16.283,europe
waidhofen,niederosterreich,austria,47.967,14.767,europe
wiener neudorf,niederosterreich,austria,48.067,16.317,europe
wiener neustadt,niederosterreich,austria,47.8,16.25,europe
zwettl,niederosterreich,austria,48.617,15.167,europe
altmunster,oberosterreich,austria,47.9,13.75,europe
ansfelden,oberosterreich,austria,48.2,14.283,europe
bad ischl,oberosterreich,austria,47.717,13.617,europe
braunau,oberosterreich,austria,48.267,13.033,europe
enns,oberosterreich,austria,48.2,14.467,europe
gallneukirchen,oberosterreich,austria,48.35,14.417,europe
gmunden,oberosterreich,austria,47.917,13.8,europe
laakirchen,oberosterreich,austria,47.967,13.817,europe
leonding,oberosterreich,austria,48.267,14.25,europe
linz,oberosterreich,austria,48.3,14.3,europe
marchtrenk,oberosterreich,austria,48.183,14.117,europe
perg,oberosterreich,austria,48.25,14.633,europe
ried,oberosterreich,austria,48.217,13.5,europe
scharding,oberosterreich,austria,48.45,13.433,europe
sierning,oberosterreich,austria,48.033,14.3,europe
steyr,oberosterreich,austria,48.05,14.417,europe
traun,oberosterreich,austria,48.217,14.233,europe
vocklabruck,oberosterreich,austria,48.017,13.65,europe
wels,oberosterreich,austria,48.167,14.033,europe
bischofshofen,salzburg,austria,47.417,13.217,europe
hallein,salzburg,austria,47.683,13.1,europe
saalfelden am steinernen meer,salzburg,austria,47.417,12.85,europe
salzburg,salzburg,austria,47.8,13.033,europe
sankt johann im pongau,salzburg,austria,47.35,13.2,europe
seekirchen,salzburg,austria,47.9,13.133,europe
zell am see,salzburg,austria,47.317,12.783,europe
bruck an der mur,steiermark,austria,47.417,15.283,europe
deutschlandsberg,steiermark,austria,46.815,15.222,europe
feldbach,steiermark,austria,46.953,15.888,europe
furstenfeld,steiermark,austria,47.05,16.083,europe
gleisdorf,steiermark,austria,47.1,15.717,europe
graz,steiermark,austria,47.067,15.45,europe
judenburg,steiermark,austria,47.167,14.667,europe
kapfenberg,steiermark,austria,47.433,15.3,europe
knittelfeld,steiermark,austria,47.217,14.817,europe
koflach,steiermark,austria,47.067,15.083,europe
leibnitz,steiermark,austria,46.782,15.542,europe
leoben,steiermark,austria,47.383,15.1,europe
trofaiach,steiermark,austria,47.417,15.0,europe
voitsberg,steiermark,austria,47.033,15.15,europe
weiz,steiermark,austria,47.217,15.617,europe
absam,tirol,austria,47.3,11.5,europe
imst,tirol,austria,47.233,10.733,europe
innsbruck,tirol,austria,47.267,11.4,europe
kitzbuhel,tirol,austria,47.45,12.383,europe
kufstein,tirol,austria,47.583,12.167,europe
lienz,tirol,austria,46.831,12.76,europe
rum,tirol,austria,47.283,11.45,europe
schwaz,tirol,austria,47.333,11.7,europe
telfs,tirol,austria,47.3,11.067,europe
worgl,tirol,austria,47.483,12.067,europe
bludenz,vorarlberg,austria,47.15,9.817,europe
bregenz,vorarlberg,austria,47.5,9.767,europe
dornbirn,vorarlberg,austria,47.417,9.733,europe
feldkirch,vorarlberg,austria,47.233,9.6,europe
gotzis,vorarlberg,austria,47.333,9.633,europe
hard,vorarlberg,austria,47.483,9.683,europe
hohenems,vorarlberg,austria,47.367,9.683,europe
lauterach,vorarlberg,austria,47.483,9.733,europe
lochau,vorarlberg,austria,47.533,9.75,europe
lustenau,vorarlberg,austria,47.433,9.65,europe
rankweil,vorarlberg,austria,47.283,9.65,europe
vienna,wien,austria,48.2,16.367,europe
ceyranbatan,abseron,azerbaijan,40.541,49.66,asia
saray,abseron,azerbaijan,40.532,49.716,asia
agdzhabedi,agcabadi,azerbaijan,40.0528,47.4614,asia
gindarch,agcabadi,azerbaijan,40.07,47.2047,asia
agdam,agdam,azerbaijan,39.993,46.931,asia
kuzanly vtoryye,agdam,azerbaijan,40.16,47.1722,asia
agdas,agdas,azerbaijan,40.65,47.476,asia
agstafa,agstafa,azerbaijan,41.119,45.454,asia
agsu,agsu,azerbaijan,40.569,48.401,asia
astara,astara,azerbaijan,38.456,48.879,asia
amirdzhan,baki,azerbaijan,40.426,49.984,asia
artyom,baki,azerbaijan,40.471,50.322,asia
badamdar,baki,azerbaijan,40.339,49.804,asia
baku,baki,azerbaijan,40.395,49.882,asia
balakhani,baki,azerbaijan,40.462,49.92,asia
binagadi,baki,azerbaijan,40.476,49.822,asia
biny selo,baki,azerbaijan,40.454,50.076,asia
buzovna,baki,azerbaijan,40.516,50.116,asia
hovsan,baki,azerbaijan,40.374,50.085,asia
khodzhi-gasan,baki,azerbaijan,40.412,49.772,asia
kirovskiy,baki,azerbaijan,40.433,49.85,asia
korgoz,baki,azerbaijan,40.303,49.62,asia
lokbatan,baki,azerbaijan,40.327,49.73,asia
mardakyany,baki,azerbaijan,40.492,50.139,asia
mastaga,baki,azerbaijan,40.533,50.004,asia
qaracuxur,baki,azerbaijan,40.397,49.974,asia
qobustan,baki,azerbaijan,40.084,49.416,asia
ramana,baki,azerbaijan,40.442,49.981,asia
sabuncu,baki,azerbaijan,40.443,49.948,asia
turkan,baki,azerbaijan,40.364,50.215,asia
zabrat,baki,azerbaijan,40.487,49.953,asia
zyrya,baki,azerbaijan,40.364,50.29,asia
qabaqcol,balakan,azerbaijan,41.72,46.265,asia
irivanly,barda,azerbaijan,40.4242,47.1242,asia
lekino,beylaqan,azerbaijan,39.7667,47.6167,asia
pushkino,bilasuvar,azerbaijan,39.458,48.545,asia
astrahanka,calilabad,azerbaijan,39.2089,48.4972,asia
prishibinske,calilabad,azerbaijan,39.1167,48.5953,asia
alunitdag,daskasan,azerbaijan,40.522,46.081,asia
davachi,davaci,azerbaijan,41.2114,48.9861,asia
kedabeko,gadabay,azerbaijan,40.5656,45.8161,asia
goranboy,goranboy,azerbaijan,40.61,46.79,asia
goycay,goycay,azerbaijan,40.653,47.741,asia
mugan,haciqabul,azerbaijan,40.099,48.819,asia
imisli,imisli,azerbaijan,39.87,48.06,asia
ismailly,ismayilli,azerbaijan,40.79,48.1519,asia
istisu,kalbacar,azerbaijan,39.948,45.962,asia
kiordamir,kurdamir,azerbaijan,40.3383,48.1608,asia
haftoni,lankaran,azerbaijan,38.764,48.765,asia
lerik,lerik,azerbaijan,38.775,48.415,asia
aerkivan,masalli,azerbaijan,39.0183,48.65,asia
dadva,masalli,azerbaijan,39.0333,48.6667,asia
naftalan,naftalan,azerbaijan,40.507,46.825,asia
culfa,naxcivan,azerbaijan,38.95,45.632,asia
il'ichevsk,naxcivan,azerbaijan,39.5458,44.9722,asia
kyvrakh,naxcivan,azerbaijan,39.3997,45.1131,asia
myasnikabad,naxcivan,azerbaijan,39.2267,45.3983,asia
nakhchyvan,naxcivan,azerbaijan,39.2089,45.4122,asia
negram,naxcivan,azerbaijan,39.1122,45.4611,asia
ordubad,naxcivan,azerbaijan,38.908,46.028,asia
sahbuz,naxcivan,azerbaijan,39.407,45.574,asia
tazakend,naxcivan,azerbaijan,39.1519,45.4417,asia
neftcala,neftcala,azerbaijan,39.359,49.247,asia
oguz,oguz,azerbaijan,41.0708,47.4583,asia
kutkashen,qabala,azerbaijan,40.9814,47.8458,asia
vcndam,qabala,azerbaijan,40.9447,47.9411,asia
qax,qax,azerbaijan,41.423,46.924,asia
qazax,qazax,azerbaijan,41.093,45.366,asia
marazi,qobustan,azerbaijan,40.5367,48.9328,asia
quba,quba,azerbaijan,41.36,48.513,asia
qusar,qusar,azerbaijan,41.426,48.436,asia
sabirabad,sabirabad,azerbaijan,40.013,48.479,asia
nukha,saki,azerbaijan,41.1919,47.1706,asia
qaracala,salyan,azerbaijan,39.808,48.934,asia
salyan,salyan,azerbaijan,39.595,48.979,asia
shamakhy,samaxi,azerbaijan,40.6303,48.6414,asia
annino,samkir,azerbaijan,40.8297,46.0189,asia
qarayeri,samux,azerbaijan,40.792,46.321,asia
kyzyl-burun,siyazan,azerbaijan,41.0761,49.1139,asia
corat,sumqayit,azerbaijan,40.573,49.706,asia
susa,susa,azerbaijan,39.756,46.751,asia
tcrtcr,tartar,azerbaijan,40.345,46.9289,asia
qovlar,tovuz,azerbaijan,40.942,45.736,asia
tovuz,tovuz,azerbaijan,40.992,45.629,asia
ucar,ucar,azerbaijan,40.518,47.654,asia
xacmaz,xacmaz,azerbaijan,41.471,48.81,asia
xudat,xacmaz,azerbaijan,41.628,48.683,asia
xanlar,xanlar,azerbaijan,40.587,46.316,asia
khizy,xizi,azerbaijan,40.9078,49.0733,asia
hadrut,xocavand,azerbaijan,39.517,47.03,asia
martouni,xocavand,azerbaijan,39.7953,47.1131,asia
iardymly,yardimli,azerbaijan,38.9206,48.2372,asia
aran,yevlax,azerbaijan,40.625,46.976,asia
yevlax,yevlax,azerbaijan,40.617,47.15,asia
qandax,zaqatala,azerbaijan,41.477,46.541,asia
zaqatala,zaqatala,azerbaijan,41.634,46.643,asia
zardob,zardab,azerbaijan,40.2183,47.7083,asia
freeport,freeport,bahamas,26.533,-78.7,america
lucaya,freeport,bahamas,26.533,-78.667,america
west end settlement,freeport,bahamas,26.6833,-78.9667,america
nassau,new providence,bahamas,25.083,-77.35,america
manama,al manamah,bahrain,26.236,50.583,asia
sitrah,sitrah,bahrain,26.155,50.621,asia
bridgetown,saint michael,barbados,13.1,-59.617,america
baranowicze,brestskaya voblasts',belarus,53.1333,26.0333,europe
brest,brestskaya voblasts',belarus,52.1,23.7,europe
drogichin,brestskaya voblasts',belarus,52.1897,25.1503,europe
gantseviche,brestskaya voblasts',belarus,52.75,26.4333,europe
ivanava,brestskaya voblasts',belarus,52.133,25.546,europe
ivantsevichi,brestskaya voblasts',belarus,52.7092,25.3389,europe
kobryn,brestskaya voblasts',belarus,52.216,24.366,europe
lachowicze,brestskaya voblasts',belarus,53.0378,26.2597,europe
luniniec,brestskaya voblasts',belarus,52.2503,26.7994,europe
malaryta,brestskaya voblasts',belarus,51.783,24.083,europe
nivy,brestskaya voblasts',belarus,52.4667,25.1667,europe
pinsk,brestskaya voblasts',belarus,52.121,26.073,europe
pruzhany,brestskaya voblasts',belarus,52.5567,24.4644,europe
samoylavichy,brestskaya voblasts',belarus,52.55,24.9667,europe
stolin,brestskaya voblasts',belarus,51.883,26.85,europe
zabinka,brestskaya voblasts',belarus,52.201,24.023,europe
budakashalyova,homyel'skaya voblasts',belarus,52.7164,30.5667,europe
chechersk,homyel'skaya voblasts',belarus,52.9161,30.9161,europe
dobrush,homyel'skaya voblasts',belarus,52.4094,31.3228,europe
gomel,homyel'skaya voblasts',belarus,52.442,30.983,europe
jitkovichi,homyel'skaya voblasts',belarus,52.2286,27.8636,europe
khoyniki,homyel'skaya voblasts',belarus,51.9,29.9667,europe
kolosy,homyel'skaya voblasts',belarus,53.1067,30.0475,europe
kommuna,homyel'skaya voblasts',belarus,51.8167,29.1333,europe
lelchitsy,homyel'skaya voblasts',belarus,51.7833,28.3333,europe
mazyr,homyel'skaya voblasts',belarus,52.05,29.267,europe
mikashevichi,homyel'skaya voblasts',belarus,52.2167,27.4667,europe
petrikovo,homyel'skaya voblasts',belarus,52.1281,28.4944,europe
shatilki,homyel'skaya voblasts',belarus,52.6292,29.7339,europe
zlobin,homyel'skaya voblasts',belarus,52.892,30.028,europe
benevichi,hrodzyenskaya voblasts',belarus,53.7333,25.4333,europe
hrodna,hrodzyenskaya voblasts',belarus,53.681,23.815,europe
lida,hrodzyenskaya voblasts',belarus,53.883,25.3,europe
masty,hrodzyenskaya voblasts',belarus,53.408,24.533,europe
navahrudak,hrodzyenskaya voblasts',belarus,53.6,25.833,europe
ostrovets,hrodzyenskaya voblasts',belarus,54.6133,25.9589,europe
oszmiana,hrodzyenskaya voblasts',belarus,54.4169,25.9328,europe
shchuchin,hrodzyenskaya voblasts',belarus,53.6097,24.7378,europe
skidel,hrodzyenskaya voblasts',belarus,53.5917,24.2436,europe
slonim,hrodzyenskaya voblasts',belarus,53.087,25.322,europe
smorgone,hrodzyenskaya voblasts',belarus,54.4836,26.4,europe
vawkavysk,hrodzyenskaya voblasts',belarus,53.152,24.456,europe
byerazino,mahilyowskaya voblasts',belarus,53.8439,29.0,europe
cherven,mahilyowskaya voblasts',belarus,53.7078,28.4322,europe
dzerzhinsk,mahilyowskaya voblasts',belarus,53.685,27.142,europe
kleck,mahilyowskaya voblasts',belarus,53.065,26.642,europe
kopyl,mahilyowskaya voblasts',belarus,53.1531,27.0967,europe
logoysk,mahilyowskaya voblasts',belarus,54.2061,27.8544,europe
lyuban,mahilyowskaya voblasts',belarus,52.8,28.0,europe
marina horka,mahilyowskaya voblasts',belarus,53.5167,28.15,europe
mgle,mahilyowskaya voblasts',belarus,54.1333,28.0667,europe
mogilev,mahilyowskaya voblasts',belarus,53.9139,30.3364,europe
molodeczno,mahilyowskaya voblasts',belarus,54.3167,26.8497,europe
salihorsk,mahilyowskaya voblasts',belarus,52.8,27.533,europe
slutsk,mahilyowskaya voblasts',belarus,53.0272,27.5619,europe
staryya darohi,mahilyowskaya voblasts',belarus,53.0392,28.2725,europe
stolptsy,mahilyowskaya voblasts',belarus,53.4786,26.7475,europe
uzda,mahilyowskaya voblasts',belarus,53.4661,27.2244,europe
valozhyn,mahilyowskaya voblasts',belarus,54.0831,26.5325,europe
vilyeyka,mahilyowskaya voblasts',belarus,54.4975,26.9211,europe
bobruysk,minsk,belarus,53.15,29.2333,europe
bychow,minsk,belarus,53.5183,30.2461,europe
byelinichi,minsk,belarus,54.0,29.7044,europe
chausi,minsk,belarus,53.8128,30.9836,europe
horki,minsk,belarus,54.283,30.991,europe
klimavichy,minsk,belarus,53.6094,31.9519,europe
kostyukovichi,minsk,belarus,53.3389,32.0461,europe
krychaw,minsk,belarus,53.6989,31.7142,europe
minsk,minsk,belarus,53.9,27.567,europe
mstislavl,minsk,belarus,54.0208,31.7264,europe
novoye medvezhino,minsk,belarus,53.883,27.45,europe
repishche,minsk,belarus,53.2833,28.4833,europe
shklov,minsk,belarus,54.2108,30.2919,europe
braslav,vitsyebskaya voblasts',belarus,55.634,27.054,europe
glebokie,vitsyebskaya voblasts',belarus,55.1333,27.6833,europe
haradok,vitsyebskaya voblasts',belarus,55.46,30.0,europe
lyepyel,vitsyebskaya voblasts',belarus,54.8833,28.7,europe
navapolatsk,vitsyebskaya voblasts',belarus,55.5333,28.65,europe
orsha,vitsyebskaya voblasts',belarus,54.515,30.405,europe
pastavy,vitsyebskaya voblasts',belarus,55.116,26.834,europe
polatsk,vitsyebskaya voblasts',belarus,55.4856,28.8042,europe
tolochin,vitsyebskaya voblasts',belarus,54.4108,29.7033,europe
val,vitsyebskaya voblasts',belarus,54.65,29.1333,europe
vitebsk,vitsyebskaya voblasts',belarus,55.1925,30.1944,europe
belize,belize,belize,17.483,-88.183,america
san pedro,belize,belize,17.917,-87.95,america
belmopan,cayo,belize,17.25,-88.767,america
san ignacio,cayo,belize,17.156,-89.071,america
corozal,corozal,belize,18.383,-88.383,america
orange walk,orange walk,belize,18.067,-88.55,america
dangriga,stann creek,belize,16.967,-88.217,america
punta gorda,toledo,belize,16.1,-88.8,america
kandi,alibori,benin,11.134,2.939,africa
pehumko,alibori,benin,10.2292,1.9994,africa
berubuaye,atakora,benin,10.5419,2.7256,africa
natitingou,atakora,benin,10.307,1.375,africa
ndali,atakora,benin,9.8608,2.7181,africa
kouarfa,atlanyique,benin,10.4833,1.5167,africa
ouidah,atlanyique,benin,6.367,2.083,africa
baku,borgou,benin,10.8147,2.7164,africa
bassila,borgou,benin,9.017,1.667,africa
boukonmbe-zongo,borgou,benin,10.1825,1.0983,africa
firu,borgou,benin,10.9192,1.9386,africa
fo,borgou,benin,10.1147,2.3986,africa
guene,borgou,benin,11.7306,3.2242,africa
guinagourou,borgou,benin,9.5664,2.9497,africa
kountori,borgou,benin,10.405,0.9425,africa
nikki,borgou,benin,9.934,3.204,africa
parakou,borgou,benin,9.35,2.617,africa
perere,borgou,benin,9.7994,2.9928,africa
sansora,borgou,benin,11.0875,2.7597,africa
senarou,borgou,benin,9.5881,2.6444,africa
siki,borgou,benin,10.1833,2.3833,africa
tasso,borgou,benin,9.6667,3.2333,africa
tobre,borgou,benin,10.1956,2.1283,africa
wassamo,borgou,benin,9.2833,2.4167,africa
aguna,collines,benin,7.5667,1.7,africa
akpassi,collines,benin,8.4333,1.8833,africa
assanbe,collines,benin,8.15,2.25,africa
attata,collines,benin,8.4667,2.4667,africa
bante,collines,benin,8.4167,1.8833,africa
beterou,collines,benin,9.2,2.267,africa
birdjinanga,collines,benin,9.9,1.75,africa
birni,collines,benin,9.9947,1.5272,africa
birnilafa,collines,benin,11.9667,3.2167,africa
biro,collines,benin,9.9064,2.9469,africa
bouanri,collines,benin,10.2,2.8667,africa
boubou,collines,benin,8.0167,2.2333,africa
bouca,collines,benin,10.2167,3.1333,africa
dassa zume,collines,benin,7.75,2.1833,africa
dassari,collines,benin,10.8158,1.1406,africa
datori,collines,benin,10.4017,0.7828,africa
dume,collines,benin,8.0167,1.65,africa
gogounou,collines,benin,10.8431,2.8283,africa
gouka,collines,benin,8.1333,1.9667,africa
kaboua,collines,benin,8.25,2.6833,africa
kerou,collines,benin,10.825,2.1094,africa
kilibo,collines,benin,8.5667,2.6,africa
manta,collines,benin,10.3564,1.1056,africa
materi,collines,benin,10.6978,1.0633,africa
nafayodi,collines,benin,10.55,1.2,africa
pira,collines,benin,8.5,1.7333,africa
savalou,collines,benin,7.933,1.967,africa
save,collines,benin,8.033,2.483,africa
soklogbo,collines,benin,7.6833,2.25,africa
sokotindji,collines,benin,10.8528,3.4297,africa
wabou,collines,benin,10.4833,1.45,africa
djougou,donga,benin,9.705,1.667,africa
founogo,donga,benin,11.4808,2.5322,africa
goumori,donga,benin,11.1825,2.2967,africa
gounarou,donga,benin,10.8667,2.85,africa
korimama,donga,benin,12.065,3.1906,africa
tihoun,donga,benin,10.8167,1.0833,africa
aplahoue,kouffo,benin,6.933,1.683,africa
dogbo,kouffo,benin,6.817,1.783,africa
malanville,kouffo,benin,11.861,3.386,africa
toucountouna,kouffo,benin,10.4986,1.3756,africa
toui,kouffo,benin,8.6833,2.6,africa
cotonou,littoral,benin,6.35,2.433,africa
cousse,littoral,benin,6.8333,2.1167,africa
athieme,mono,benin,6.583,1.667,africa
lobogo,mono,benin,6.6333,1.9,africa
lokossa,mono,benin,6.633,1.717,africa
nienessani,mono,benin,10.3333,3.2667,africa
sakabansi,mono,benin,10.05,3.3833,africa
tangoueita,mono,benin,10.6197,1.2644,africa
tchaourou,mono,benin,8.883,2.6,africa
briniamaro,oueme,benin,10.75,2.0833,africa
porto-novo,oueme,benin,6.483,2.617,africa
sam,oueme,benin,11.0333,2.7333,africa
segbana,oueme,benin,10.9278,3.6931,africa
adjohon,plateau,benin,6.7,2.4667,africa
banikoara,plateau,benin,11.3,2.433,africa
bonou,plateau,benin,6.9,2.45,africa
come,plateau,benin,6.4,1.883,africa
dosso,plateau,benin,7.0167,2.4667,africa
hounoume,plateau,benin,7.0,2.45,africa
pobe,plateau,benin,6.967,2.683,africa
sakete,plateau,benin,6.717,2.667,africa
abomey,zou,benin,7.183,1.983,africa
abomey-calavi,zou,benin,6.45,2.35,africa
allada,zou,benin,6.65,2.15,africa
angara-debu,zou,benin,11.3289,3.0406,africa
bembereke,zou,benin,10.229,2.665,africa
bohicon,zou,benin,7.2,2.067,africa
cove,zou,benin,7.233,2.3,africa
demoukoe,zou,benin,7.1333,1.6833,africa
deressi,zou,benin,10.1617,3.2592,africa
djessi,zou,benin,7.3833,1.95,africa
gouande,zou,benin,10.7828,0.9186,africa
ina,zou,benin,9.9642,2.7261,africa
kalale,zou,benin,10.2953,3.3786,africa
ketou,zou,benin,7.367,2.6,africa
libante,zou,benin,10.7936,3.5828,africa
masse,zou,benin,7.15,2.5167,africa
massi,zou,benin,9.9167,1.4667,africa
onklou,zou,benin,9.5,1.9833,africa
ouberekou,zou,benin,10.2833,2.0167,africa
ouenou,zou,benin,9.785,2.6347,africa
piougou,zou,benin,9.4333,1.6167,africa
sininde,zou,benin,10.3447,2.3792,africa
sori,zou,benin,10.7281,2.7825,africa
tantega,zou,benin,10.85,1.0333,africa
toffo,zou,benin,6.85,2.0833,africa
tokame-kpodji,zou,benin,7.05,1.8333,africa
vome-vegame,zou,benin,7.2333,1.65,africa
hamilton,hamilton,bermuda,32.294,-64.784,atlantic
jakar,bumthang,bhutan,27.55,90.733,asia
chhukha,chhukha,bhutan,27.067,89.583,asia
phuntsholing,chhukha,bhutan,26.85,89.383,asia
damphu,chirang,bhutan,27.017,90.1,asia
daga,daga,bhutan,27.067,89.883,asia
geylegphug,geylegphug,bhutan,26.85,90.5,asia
sarbhang,geylegphug,bhutan,26.8667,90.2667,asia
ha,ha,bhutan,27.367,89.283,asia
mochhu,ha,bhutan,27.1333,89.1167,asia
lhuntshi,lhuntshi,bhutan,27.65,91.15,asia
mongar,mongar,bhutan,27.25,91.2,asia
paro,paro,bhutan,27.433,89.417,asia
pemagatsel,pemagatsel,bhutan,27.033,91.45,asia
gasa,punakha,bhutan,27.917,89.683,asia
punakha,punakha,bhutan,27.617,89.867,asia
samdrup jongkhar,samdrup,bhutan,26.817,91.567,asia
shemgang,shemgang,bhutan,27.233,90.65,asia
tashigang,tashigang,bhutan,27.317,91.567,asia
tashigangtsi,tashigang,bhutan,27.5833,91.4667,asia
thimphu,thimphu,bhutan,27.483,89.6,asia
tongsa,tongsa,bhutan,27.517,90.5,asia
wangdiphodrang,wangdi phodrang,bhutan,27.483,89.9,asia
camargo,chuquisaca,bolivia,-20.65,-65.217,america
padilla,chuquisaca,bolivia,-19.3,-64.3,america
sucre,chuquisaca,bolivia,-19.043,-65.259,america
tarabuco,chuquisaca,bolivia,-19.167,-64.917,america
villazon,chuquisaca,bolivia,-20.5333,-62.2667,america
aiquile,cochabamba,bolivia,-18.167,-65.167,america
chimore,cochabamba,bolivia,-16.983,-65.133,america
cliza,cochabamba,bolivia,-17.6,-65.933,america
cochabamba,cochabamba,bolivia,-17.383,-66.15,america
irpa irpa,cochabamba,bolivia,-17.717,-66.267,america
mizque,cochabamba,bolivia,-17.933,-65.317,america
paracti,cochabamba,bolivia,-17.0,-65.4167,america
puerto villaroel,cochabamba,bolivia,-16.8667,-64.7833,america
punata,cochabamba,bolivia,-17.55,-65.833,america
sipe sipe,cochabamba,bolivia,-17.45,-66.383,america
tocorani,cochabamba,bolivia,-16.7333,-66.5333,america
boroica,el beni,bolivia,-13.2167,-64.15,america
guayaramerin,el beni,bolivia,-10.8,-65.383,america
piso firme,el beni,bolivia,-13.6833,-61.8667,america
reyes,el beni,bolivia,-14.317,-67.383,america
riberalta,el beni,bolivia,-10.983,-66.1,america
rurrenabaque,el beni,bolivia,-14.467,-67.567,america
san borja,el beni,bolivia,-14.817,-66.85,america
san ignacio de moxo,el beni,bolivia,-15.0,-65.65,america
san ramon,el beni,bolivia,-13.283,-64.717,america
santa ana de yacuma,el beni,bolivia,-13.75,-65.4333,america
trinidad,el beni,bolivia,-14.833,-64.9,america
trobi,el beni,bolivia,-13.6167,-63.6667,america
achacachi,la paz,bolivia,-16.05,-68.683,america
caranavi,la paz,bolivia,-15.817,-67.55,america
coroico,la paz,bolivia,-16.183,-67.733,america
estancia challa sirca,la paz,bolivia,-16.6833,-67.8667,america
estancia lupirani,la paz,bolivia,-17.6,-69.4333,america
fortin puerto heath,la paz,bolivia,-12.5,-68.6667,america
huaichuni,la paz,bolivia,-17.1667,-68.45,america
ipuni,la paz,bolivia,-14.6833,-68.5167,america
la paz,la paz,bolivia,-16.5,-68.15,america
lahuachaca,la paz,bolivia,-17.367,-67.667,america
mapiri,la paz,bolivia,-15.25,-68.167,america
patacamaya,la paz,bolivia,-17.233,-67.917,america
puerto acosta,la paz,bolivia,-15.5333,-69.25,america
quime,la paz,bolivia,-16.983,-67.217,america
sorata,la paz,bolivia,-15.767,-68.633,america
viacha,la paz,bolivia,-16.65,-68.3,america
challapata,oruro,bolivia,-18.9,-66.767,america
huanuni,oruro,bolivia,-18.267,-66.85,america
oruro,oruro,bolivia,-17.983,-67.15,america
sabaya,oruro,bolivia,-19.0167,-68.3833,america
aguilera,pando,bolivia,-11.5167,-68.0167,america
cobija,pando,bolivia,-11.033,-68.733,america
betanzos,potosi,bolivia,-19.551,-65.453,america
estancia filaps,potosi,bolivia,-20.75,-67.65,america
llica,potosi,bolivia,-19.85,-68.25,america
potosi,potosi,bolivia,-19.584,-65.753,america
ravelo,potosi,bolivia,-18.8,-65.5333,america
torotoro,potosi,bolivia,-18.1167,-65.7667,america
tupiza,potosi,bolivia,-21.45,-65.717,america
uncia,potosi,bolivia,-18.45,-66.617,america
uyuni,potosi,bolivia,-20.467,-66.833,america
villazon,potosi,bolivia,-22.1,-65.6,america
ascension,santa cruz,bolivia,-15.7,-63.083,america
barraca isarsama,santa cruz,bolivia,-17.0,-64.6833,america
camiri,santa cruz,bolivia,-20.05,-63.517,america
charagua,santa cruz,bolivia,-19.8,-63.217,america
colonia la altura,santa cruz,bolivia,-17.2167,-62.8833,america
comarapa,santa cruz,bolivia,-17.9,-64.483,america
cotoca,santa cruz,bolivia,-17.75,-62.983,america
cuevo,santa cruz,bolivia,-20.45,-63.5333,america
mineros,santa cruz,bolivia,-17.117,-63.233,america
montero,santa cruz,bolivia,-17.333,-63.25,america
pailon,santa cruz,bolivia,-17.65,-62.75,america
palmarita,santa cruz,bolivia,-16.8167,-62.6167,america
portachuelo,santa cruz,bolivia,-17.35,-63.4,america
puerto quijarro,santa cruz,bolivia,-17.783,-57.767,america
puerto suarez,santa cruz,bolivia,-18.95,-57.8,america
robore,santa cruz,bolivia,-18.333,-59.75,america
samaipata,santa cruz,bolivia,-18.15,-63.867,america
san carlos,santa cruz,bolivia,-17.4,-63.75,america
san ignacio de velasco,santa cruz,bolivia,-16.367,-60.95,america
san javier,santa cruz,bolivia,-16.333,-62.633,america
san jose,santa cruz,bolivia,-17.85,-60.75,america
san matias,santa cruz,bolivia,-16.367,-58.4,america
san rafael,santa cruz,bolivia,-16.75,-60.567,america
santa cruz de la sierra,santa cruz,bolivia,-17.8,-63.167,america
vallegrande,santa cruz,bolivia,-18.49,-64.107,america
warnes,santa cruz,bolivia,-17.5,-63.167,america
zapocoz,santa cruz,bolivia,-15.8,-63.0667,america
bermejo,tarija,bolivia,-22.65,-64.367,america
entre rios,tarija,bolivia,-21.533,-64.2,america
san lorenzo,tarija,bolivia,-21.433,-64.783,america
tarija,tarija,bolivia,-21.517,-64.75,america
villamontes,tarija,bolivia,-21.25,-63.5,america
yacuiba,tarija,bolivia,-22.033,-63.683,america
banovici,federation of bosnia and herzegovina,bosnia and herzegovina,44.404,18.448,europe
bihac,federation of bosnia and herzegovina,bosnia and herzegovina,44.817,15.871,europe
bosanska krupa,federation of bosnia and herzegovina,bosnia and herzegovina,44.883,16.151,europe
brcko,federation of bosnia and herzegovina,bosnia and herzegovina,44.873,18.808,europe
breza,federation of bosnia and herzegovina,bosnia and herzegovina,44.016,18.259,europe
bugojno,federation of bosnia and herzegovina,bosnia and herzegovina,44.057,17.451,europe
busovaca,federation of bosnia and herzegovina,bosnia and herzegovina,44.098,17.879,europe
capljina,federation of bosnia and herzegovina,bosnia and herzegovina,43.114,17.704,europe
cazin,federation of bosnia and herzegovina,bosnia and herzegovina,44.967,15.943,europe
citluk,federation of bosnia and herzegovina,bosnia and herzegovina,43.229,17.701,europe
donji vakuf,federation of bosnia and herzegovina,bosnia and herzegovina,44.144,17.4,europe
fojnica,federation of bosnia and herzegovina,bosnia and herzegovina,43.963,17.898,europe
gorazde,federation of bosnia and herzegovina,bosnia and herzegovina,43.667,18.976,europe
gornji vakuf,federation of bosnia and herzegovina,bosnia and herzegovina,43.938,17.588,europe
gracanica,federation of bosnia and herzegovina,bosnia and herzegovina,44.703,18.31,europe
gradacac,federation of bosnia and herzegovina,bosnia and herzegovina,44.881,18.427,europe
gromiljak,federation of bosnia and herzegovina,bosnia and herzegovina,43.967,18.053,europe
hadzici,federation of bosnia and herzegovina,bosnia and herzegovina,43.822,18.207,europe
ilijas,federation of bosnia and herzegovina,bosnia and herzegovina,43.951,18.271,europe
jablanica,federation of bosnia and herzegovina,bosnia and herzegovina,43.66,17.762,europe
jajce,federation of bosnia and herzegovina,bosnia and herzegovina,44.342,17.266,europe
kakanj,federation of bosnia and herzegovina,bosnia and herzegovina,44.127,18.118,europe
kladanj,federation of bosnia and herzegovina,bosnia and herzegovina,44.226,18.691,europe
kljuc,federation of bosnia and herzegovina,bosnia and herzegovina,44.535,16.772,europe
listica,federation of bosnia and herzegovina,bosnia and herzegovina,43.383,17.593,europe
livno,federation of bosnia and herzegovina,bosnia and herzegovina,43.827,17.008,europe
ljubuski,federation of bosnia and herzegovina,bosnia and herzegovina,43.197,17.545,europe
lukavac,federation of bosnia and herzegovina,bosnia and herzegovina,44.542,18.526,europe
maglaj,federation of bosnia and herzegovina,bosnia and herzegovina,44.549,18.097,europe
mostar,federation of bosnia and herzegovina,bosnia and herzegovina,43.343,17.808,europe
novi travnik,federation of bosnia and herzegovina,bosnia and herzegovina,44.171,17.658,europe
odzak,federation of bosnia and herzegovina,bosnia and herzegovina,45.011,18.327,europe
olovo,federation of bosnia and herzegovina,bosnia and herzegovina,44.13,18.583,europe
orasje,federation of bosnia and herzegovina,bosnia and herzegovina,45.036,18.693,europe
posusje,federation of bosnia and herzegovina,bosnia and herzegovina,43.472,17.327,europe
sanski most,federation of bosnia and herzegovina,bosnia and herzegovina,44.765,16.666,europe
srebrenik,federation of bosnia and herzegovina,bosnia and herzegovina,44.708,18.488,europe
stolac,federation of bosnia and herzegovina,bosnia and herzegovina,43.084,17.958,europe
tesanj,federation of bosnia and herzegovina,bosnia and herzegovina,44.612,17.987,europe
travnik,federation of bosnia and herzegovina,bosnia and herzegovina,44.227,17.671,europe
tuzla,federation of bosnia and herzegovina,bosnia and herzegovina,44.543,18.669,europe
vares,federation of bosnia and herzegovina,bosnia and herzegovina,44.164,18.328,europe
visoko,federation of bosnia and herzegovina,bosnia and herzegovina,43.989,18.178,europe
vitez,federation of bosnia and herzegovina,bosnia and herzegovina,44.154,17.79,europe
vogosca,federation of bosnia and herzegovina,bosnia and herzegovina,43.902,18.348,europe
zenica,federation of bosnia and herzegovina,bosnia and herzegovina,44.201,17.906,europe
zepce,federation of bosnia and herzegovina,bosnia and herzegovina,44.427,18.038,europe
zivinice,federation of bosnia and herzegovina,bosnia and herzegovina,44.449,18.65,europe
banja luka,republika srpska,bosnia and herzegovina,44.776,17.186,europe
bijeljina,republika srpska,bosnia and herzegovina,44.757,19.216,europe
bileca,republika srpska,bosnia and herzegovina,42.872,18.43,europe
bosanska gradiska,republika srpska,bosnia and herzegovina,45.141,17.25,europe
bosanski brod,republika srpska,bosnia and herzegovina,45.138,17.99,europe
bosanski novi,republika srpska,bosnia and herzegovina,45.046,16.38,europe
bratunac,republika srpska,bosnia and herzegovina,44.188,19.339,europe
derventa,republika srpska,bosnia and herzegovina,44.977,17.91,europe
doboj,republika srpska,bosnia and herzegovina,44.735,18.088,europe
foca,republika srpska,bosnia and herzegovina,43.505,18.779,europe
gacko,republika srpska,bosnia and herzegovina,43.167,18.535,europe
johovac,republika srpska,bosnia and herzegovina,44.187,19.073,europe
koraj,republika srpska,bosnia and herzegovina,44.708,18.88,europe
lopare,republika srpska,bosnia and herzegovina,44.638,18.843,europe
pale,republika srpska,bosnia and herzegovina,43.816,18.569,europe
petkovci,republika srpska,bosnia and herzegovina,44.453,19.076,europe
prijedor,republika srpska,bosnia and herzegovina,44.981,16.713,europe
rogatica,republika srpska,bosnia and herzegovina,43.801,19.003,europe
srebrenica,republika srpska,bosnia and herzegovina,44.106,19.297,europe
trebinje,republika srpska,bosnia and herzegovina,42.712,18.344,europe
vlasenica,republika srpska,bosnia and herzegovina,44.182,18.941,europe
zvornik,republika srpska,bosnia and herzegovina,44.387,19.101,europe
bonwapitse,central,botswana,-23.017,26.667,africa
dukwe,central,botswana,-20.5833,26.4167,africa
hukuntsi,central,botswana,-24.0,21.75,africa
letlhakane,central,botswana,-21.417,25.583,africa
mahalapye,central,botswana,-23.067,26.833,africa
palapye,central,botswana,-22.55,27.133,africa
serowe,central,botswana,-22.383,26.717,africa
khemsbok,ghanzi,botswana,-21.6833,21.6333,africa
tsabong,kgalagadi,botswana,-26.05,22.45,africa
mochudi,kgatleng,botswana,-24.417,26.15,africa
gabane,kweneng,botswana,-24.667,25.782,africa
lokerane,kweneng,botswana,-24.8833,24.6667,africa
metsemotlhaba,kweneng,botswana,-24.551,25.803,africa
mmopone,kweneng,botswana,-24.567,25.874,africa
mogoditshane,kweneng,botswana,-24.627,25.866,africa
molepolole,kweneng,botswana,-24.417,25.533,africa
shakawe,kweneng,botswana,-18.367,21.85,africa
thamaga,kweneng,botswana,-24.717,25.533,africa
bobonong,north-east,botswana,-21.967,28.333,africa
francistown,north-east,botswana,-21.167,27.517,africa
masunga,north-east,botswana,-20.667,27.417,africa
tobane,north-east,botswana,-21.95,27.9,africa
kasane,north-west,botswana,-17.817,25.15,africa
lehututu,north-west,botswana,-23.967,21.867,africa
maun,north-west,botswana,-19.983,23.417,africa
nokaneng,north-west,botswana,-19.667,22.267,africa
tsau,north-west,botswana,-20.15,22.45,africa
gaborone,south-east,botswana,-24.646,25.912,africa
kopong,south-east,botswana,-24.483,25.883,africa
lobatse,south-east,botswana,-25.217,25.667,africa
